$GPGGA,120000.000,4149.677,N,00048.735,W,1,12,1.0,0.0,M,0.0,M,,*7C
$GPGSA,A,3,01,02,03,04,05,06,07,08,09,10,11,12,1.0,1.0,1.0*30
$GPRMC,120000.000,A,4149.677,N,00048.735,W,038.9,113.3,150725,000.0,W*6E
$GPGGA,120000.100,4149.676,N,00048.733,W,1,12,1.0,0.0,M,0.0,M,,*7A
$GPGSA,A,3,01,02,03,04,05,06,07,08,09,10,11,12,1.0,1.0,1.0*30
$GPRMC,120000.100,A,4149.676,N,00048.733,W,038.9,113.3,150725,000.0,W*68
$GPGGA,120000.200,4149.676,N,00048.732,W,1,12,1.0,0.0,M,0.0,M,,*78
$GPGSA,A,3,01,02,03,04,05,06,07,08,09,10,11,12,1.0,1.0,1.0*30
$GPRMC,120000.200,A,4149.676,N,00048.732,W,038.9,113.3,150725,000.0,W*6A
$GPGGA,120000.300,4149.675,N,00048.731,W,1,12,1.0,0.0,M,0.0,M,,*79
$GPGSA,A,3,01,02,03,04,05,06,07,08,09,10,11,12,1.0,1.0,1.0*30
$GPRMC,120000.300,A,4149.675,N,00048.731,W,038.9,113.3,150725,000.0,W*6B
$GPGGA,120000.400,4149.675,N,00048.729,W,1,12,1.0,0.0,M,0.0,M,,*77
$GPGSA,A,3,01,02,03,04,05,06,07,08,09,10,11,12,1.0,1.0,1.0*30
$GPRMC,120000.400,A,4149.675,N,00048.729,W,038.9,113.3,150725,000.0,W*65
$GPGGA,120000.500,4149.674,N,00048.728,W,1,12,1.0,0.0,M,0.0,M,,*76
$GPGSA,A,3,01,02,03,04,05,06,07,08,09,10,11,12,1.0,1.0,1.0*30
$GPRMC,120000.500,A,4149.674,N,00048.728,W,038.9,113.3,150725,000.0,W*64
$GPGGA,120000.600,4149.674,N,00048.727,W,1,12,1.0,0.0,M,0.0,M,,*7A
$GPGSA,A,3,01,02,03,04,05,06,07,08,09,10,11,12,1.0,1.0,1.0*30
$GPRMC,120000.600,A,4149.674,N,00048.727,W,038.9,113.3,150725,000.0,W*68
$GPGGA,120000.700,4149.674,N,00048.725,W,1,12,1.0,0.0,M,0.0,M,,*79
$GPGSA,A,3,01,02,03,04,05,06,07,08,09,10,11,12,1.0,1.0,1.0*30
$GPRMC,120000.700,A,4149.674,N,00048.725,W,038.9,113.3,150725,000.0,W*6B
$GPGGA,120000.800,4149.673,N,00048.724,W,1,12,1.0,0.0,M,0.0,M,,*70
$GPGSA,A,3,01,02,03,04,05,06,07,08,09,10,11,12,1.0,1.0,1.0*30
$GPRMC,120000.800,A,4149.673,N,00048.724,W,038.9,113.3,150725,000.0,W*62
$GPGGA,120000.900,4149.673,N,00048.723,W,1,12,1.0,0.0,M,0.0,M,,*76
$GPGSA,A,3,01,02,03,04,05,06,07,08,09,10,11,12,1.0,1.0,1.0*30
$GPRMC,120000.900,A,4149.673,N,00048.723,W,038.9,113.3,150725,000.0,W*64
$GPGGA,120001.000,4149.672,N,00048.721,W,1,12,1.0,0.0,M,0.0,M,,*7D
$GPGSA,A,3,01,02,03,04,05,06,07,08,09,10,11,12,1.0,1.0,1.0*30
$GPRMC,120001.000,A,4149.672,N,00048.721,W,038.9,113.3,150725,000.0,W*6F
$GPGGA,120001.100,4149.672,N,00048.720,W,1,12,1.0,0.0,M,0.0,M,,*7D
$GPGSA,A,3,01,02,03,04,05,06,07,08,09,10,11,12,1.0,1.0,1.0*30
$GPRMC,120001.100,A,4149.672,N,00048.720,W,038.9,113.3,150725,000.0,W*6F
$GPGGA,120001.200,4149.671,N,00048.719,W,1,12,1.0,0.0,M,0.0,M,,*77
$GPGSA,A,3,01,02,03,04,05,06,07,08,09,10,11,12,1.0,1.0,1.0*30
$GPRMC,120001.200,A,4149.671,N,00048.719,W,038.9,113.3,150725,000.0,W*65
$GPGGA,120001.300,4149.671,N,00048.717,W,1,12,1.0,0.0,M,0.0,M,,*78
$GPGSA,A,3,01,02,03,04,05,06,07,08,09,10,11,12,1.0,1.0,1.0*30
$GPRMC,120001.300,A,4149.671,N,00048.717,W,038.9,113.3,150725,000.0,W*6A
$GPGGA,120001.400,4149.671,N,00048.716,W,1,12,1.0,0.0,M,0.0,M,,*7E
$GPGSA,A,3,01,02,03,04,05,06,07,08,09,10,11,12,1.0,1.0,1.0*30
$GPRMC,120001.400,A,4149.671,N,00048.716,W,038.9,113.3,150725,000.0,W*6C
$GPGGA,120001.500,4149.670,N,00048.715,W,1,12,1.0,0.0,M,0.0,M,,*7D
$GPGSA,A,3,01,02,03,04,05,06,07,08,09,10,11,12,1.0,1.0,1.0*30
$GPRMC,120001.500,A,4149.670,N,00048.715,W,038.9,113.3,150725,000.0,W*6F
$GPGGA,120001.600,4149.670,N,00048.713,W,1,12,1.0,0.0,M,0.0,M,,*78
$GPGSA,A,3,01,02,03,04,05,06,07,08,09,10,11,12,1.0,1.0,1.0*30
$GPRMC,120001.600,A,4149.670,N,00048.713,W,038.9,113.3,150725,000.0,W*6A
$GPGGA,120001.700,4149.669,N,00048.712,W,1,12,1.0,0.0,M,0.0,M,,*70
$GPGSA,A,3,01,02,03,04,05,06,07,08,09,10,11,12,1.0,1.0,1.0*30
$GPRMC,120001.700,A,4149.669,N,00048.712,W,038.9,113.3,150725,000.0,W*62
$GPGGA,120001.800,4149.669,N,00048.711,W,1,12,1.0,0.0,M,0.0,M,,*7C
$GPGSA,A,3,01,02,03,04,05,06,07,08,09,10,11,12,1.0,1.0,1.0*30
$GPRMC,120001.800,A,4149.669,N,00048.711,W,038.9,113.3,150725,000.0,W*6E
$GPGGA,120001.900,4149.668,N,00048.709,W,1,12,1.0,0.0,M,0.0,M,,*75
$GPGSA,A,3,01,02,03,04,05,06,07,08,09,10,11,12,1.0,1.0,1.0*30
$GPRMC,120001.900,A,4149.668,N,00048.709,W,038.9,113.3,150725,000.0,W*67
$GPGGA,120002.000,4149.668,N,00048.708,W,1,12,1.0,0.0,M,0.0,M,,*7E
$GPGSA,A,3,01,02,03,04,05,06,07,08,09,10,11,12,1.0,1.0,1.0*30
$GPRMC,120002.000,A,4149.668,N,00048.708,W,038.9,113.3,150725,000.0,W*6C
$GPGGA,120002.100,4149.668,N,00048.707,W,1,12,1.0,0.0,M,0.0,M,,*70
$GPGSA,A,3,01,02,03,04,05,06,07,08,09,10,11,12,1.0,1.0,1.0*30
$GPRMC,120002.100,A,4149.668,N,00048.707,W,038.9,113.3,150725,000.0,W*62
$GPGGA,120002.200,4149.667,N,00048.705,W,1,12,1.0,0.0,M,0.0,M,,*7E
$GPGSA,A,3,01,02,03,04,05,06,07,08,09,10,11,12,1.0,1.0,1.0*30
$GPRMC,120002.200,A,4149.667,N,00048.705,W,038.9,113.3,150725,000.0,W*6C
$GPGGA,120002.300,4149.667,N,00048.704,W,1,12,1.0,0.0,M,0.0,M,,*7E
$GPGSA,A,3,01,02,03,04,05,06,07,08,09,10,11,12,1.0,1.0,1.0*30
$GPRMC,120002.300,A,4149.667,N,00048.704,W,038.9,113.3,150725,000.0,W*6C
$GPGGA,120002.400,4149.666,N,00048.703,W,1,12,1.0,0.0,M,0.0,M,,*7F
$GPGSA,A,3,01,02,03,04,05,06,07,08,09,10,11,12,1.0,1.0,1.0*30
$GPRMC,120002.400,A,4149.666,N,00048.703,W,038.9,113.3,150725,000.0,W*6D
$GPGGA,120002.500,4149.666,N,00048.701,W,1,12,1.0,0.0,M,0.0,M,,*7C
$GPGSA,A,3,01,02,03,04,05,06,07,08,09,10,11,12,1.0,1.0,1.0*30
$GPRMC,120002.500,A,4149.666,N,00048.701,W,038.9,113.3,150725,000.0,W*6E
$GPGGA,120002.600,4149.665,N,00048.700,W,1,12,1.0,0.0,M,0.0,M,,*7D
$GPGSA,A,3,01,02,03,04,05,06,07,08,09,10,11,12,1.0,1.0,1.0*30
$GPRMC,120002.600,A,4149.665,N,00048.700,W,038.9,113.3,150725,000.0,W*6F
$GPGGA,120002.700,4149.665,N,00048.699,W,1,12,1.0,0.0,M,0.0,M,,*7D
$GPGSA,A,3,01,02,03,04,05,06,07,08,09,10,11,12,1.0,1.0,1.0*30
$GPRMC,120002.700,A,4149.665,N,00048.699,W,038.9,113.3,150725,000.0,W*6F
$GPGGA,120002.800,4149.665,N,00048.697,W,1,12,1.0,0.0,M,0.0,M,,*7C
$GPGSA,A,3,01,02,03,04,05,06,07,08,09,10,11,12,1.0,1.0,1.0*30
$GPRMC,120002.800,A,4149.665,N,00048.697,W,038.9,113.3,150725,000.0,W*6E
$GPGGA,120002.900,4149.664,N,00048.696,W,1,12,1.0,0.0,M,0.0,M,,*7D
$GPGSA,A,3,01,02,03,04,05,06,07,08,09,10,11,12,1.0,1.0,1.0*30
$GPRMC,120002.900,A,4149.664,N,00048.696,W,038.9,113.3,150725,000.0,W*6F
$GPGGA,120003.000,4149.664,N,00048.695,W,1,12,1.0,0.0,M,0.0,M,,*76
$GPGSA,A,3,01,02,03,04,05,06,07,08,09,10,11,12,1.0,1.0,1.0*30
$GPRMC,120003.000,A,4149.664,N,00048.695,W,038.9,113.3,150725,000.0,W*64
$GPGGA,120003.100,4149.663,N,00048.693,W,1,12,1.0,0.0,M,0.0,M,,*76
$GPGSA,A,3,01,02,03,04,05,06,07,08,09,10,11,12,1.0,1.0,1.0*30
$GPRMC,120003.100,A,4149.663,N,00048.693,W,038.9,113.3,150725,000.0,W*64
$GPGGA,120003.200,4149.663,N,00048.692,W,1,12,1.0,0.0,M,0.0,M,,*74
$GPGSA,A,3,01,02,03,04,05,06,07,08,09,10,11,12,1.0,1.0,1.0*30
$GPRMC,120003.200,A,4149.663,N,00048.692,W,038.9,113.3,150725,000.0,W*66
$GPGGA,120003.300,4149.663,N,00048.691,W,1,12,1.0,0.0,M,0.0,M,,*76
$GPGSA,A,3,01,02,03,04,05,06,07,08,09,10,11,12,1.0,1.0,1.0*30
$GPRMC,120003.300,A,4149.663,N,00048.691,W,038.9,113.3,150725,000.0,W*64
$GPGGA,120003.400,4149.662,N,00048.689,W,1,12,1.0,0.0,M,0.0,M,,*79
$GPGSA,A,3,01,02,03,04,05,06,07,08,09,10,11,12,1.0,1.0,1.0*30
$GPRMC,120003.400,A,4149.662,N,00048.689,W,038.9,113.3,150725,000.0,W*6B
$GPGGA,120003.500,4149.662,N,00048.688,W,1,12,1.0,0.0,M,0.0,M,,*79
$GPGSA,A,3,01,02,03,04,05,06,07,08,09,10,11,12,1.0,1.0,1.0*30
$GPRMC,120003.500,A,4149.662,N,00048.688,W,038.9,113.3,150725,000.0,W*6B
$GPGGA,120003.600,4149.661,N,00048.687,W,1,12,1.0,0.0,M,0.0,M,,*76
$GPGSA,A,3,01,02,03,04,05,06,07,08,09,10,11,12,1.0,1.0,1.0*30
$GPRMC,120003.600,A,4149.661,N,00048.687,W,038.9,113.3,150725,000.0,W*64
$GPGGA,120003.700,4149.661,N,00048.685,W,1,12,1.0,0.0,M,0.0,M,,*75
$GPGSA,A,3,01,02,03,04,05,06,07,08,09,10,11,12,1.0,1.0,1.0*30
$GPRMC,120003.700,A,4149.661,N,00048.685,W,038.9,113.3,150725,000.0,W*67
$GPGGA,120003.800,4149.660,N,00048.684,W,1,12,1.0,0.0,M,0.0,M,,*7A
$GPGSA,A,3,01,02,03,04,05,06,07,08,09,10,11,12,1.0,1.0,1.0*30
$GPRMC,120003.800,A,4149.660,N,00048.684,W,038.9,113.3,150725,000.0,W*68
$GPGGA,120003.900,4149.660,N,00048.683,W,1,12,1.0,0.0,M,0.0,M,,*7C
$GPGSA,A,3,01,02,03,04,05,06,07,08,09,10,11,12,1.0,1.0,1.0*30
$GPRMC,120003.900,A,4149.660,N,00048.683,W,038.9,113.3,150725,000.0,W*6E
$GPGGA,120004.000,4149.660,N,00048.681,W,1,12,1.0,0.0,M,0.0,M,,*70
$GPGSA,A,3,01,02,03,04,05,06,07,08,09,10,11,12,1.0,1.0,1.0*30
$GPRMC,120004.000,A,4149.660,N,00048.681,W,038.9,113.3,150725,000.0,W*62
$GPGGA,120004.100,4149.659,N,00048.680,W,1,12,1.0,0.0,M,0.0,M,,*7A
$GPGSA,A,3,01,02,03,04,05,06,07,08,09,10,11,12,1.0,1.0,1.0*30
$GPRMC,120004.100,A,4149.659,N,00048.680,W,038.9,113.3,150725,000.0,W*68
$GPGGA,120004.200,4149.659,N,00048.679,W,1,12,1.0,0.0,M,0.0,M,,*7F
$GPGSA,A,3,01,02,03,04,05,06,07,08,09,10,11,12,1.0,1.0,1.0*30
$GPRMC,120004.200,A,4149.659,N,00048.679,W,038.9,113.3,150725,000.0,W*6D
$GPGGA,120004.300,4149.658,N,00048.677,W,1,12,1.0,0.0,M,0.0,M,,*71
$GPGSA,A,3,01,02,03,04,05,06,07,08,09,10,11,12,1.0,1.0,1.0*30
$GPRMC,120004.300,A,4149.658,N,00048.677,W,038.9,113.3,150725,000.0,W*63
$GPGGA,120004.400,4149.658,N,00048.676,W,1,12,1.0,0.0,M,0.0,M,,*77
$GPGSA,A,3,01,02,03,04,05,06,07,08,09,10,11,12,1.0,1.0,1.0*30
$GPRMC,120004.400,A,4149.658,N,00048.676,W,038.9,113.3,150725,000.0,W*65
$GPGGA,120004.500,4149.657,N,00048.675,W,1,12,1.0,0.0,M,0.0,M,,*7A
$GPGSA,A,3,01,02,03,04,05,06,07,08,09,10,11,12,1.0,1.0,1.0*30
$GPRMC,120004.500,A,4149.657,N,00048.675,W,038.9,113.3,150725,000.0,W*68
$GPGGA,120004.600,4149.657,N,00048.673,W,1,12,1.0,0.0,M,0.0,M,,*7F
$GPGSA,A,3,01,02,03,04,05,06,07,08,09,10,11,12,1.0,1.0,1.0*30
$GPRMC,120004.600,A,4149.657,N,00048.673,W,038.9,113.3,150725,000.0,W*6D
$GPGGA,120004.700,4149.657,N,00048.672,W,1,12,1.0,0.0,M,0.0,M,,*7F
$GPGSA,A,3,01,02,03,04,05,06,07,08,09,10,11,12,1.0,1.0,1.0*30
$GPRMC,120004.700,A,4149.657,N,00048.672,W,038.9,113.3,150725,000.0,W*6D
$GPGGA,120004.800,4149.656,N,00048.671,W,1,12,1.0,0.0,M,0.0,M,,*72
$GPGSA,A,3,01,02,03,04,05,06,07,08,09,10,11,12,1.0,1.0,1.0*30
$GPRMC,120004.800,A,4149.656,N,00048.671,W,038.9,115.4,150725,000.0,W*61
$GPGGA,120004.900,4149.656,N,00048.670,W,1,12,1.0,0.0,M,0.0,M,,*72
$GPGSA,A,3,01,02,03,04,05,06,07,08,09,10,11,12,1.0,1.0,1.0*30
$GPRMC,120004.900,A,4149.656,N,00048.670,W,038.9,115.4,150725,000.0,W*61
$GPGGA,120005.000,4149.655,N,00048.668,W,1,12,1.0,0.0,M,0.0,M,,*70
$GPGSA,A,3,01,02,03,04,05,06,07,08,09,10,11,12,1.0,1.0,1.0*30
$GPRMC,120005.000,A,4149.655,N,00048.668,W,038.9,115.4,150725,000.0,W*63
$GPGGA,120005.100,4149.655,N,00048.667,W,1,12,1.0,0.0,M,0.0,M,,*7E
$GPGSA,A,3,01,02,03,04,05,06,07,08,09,10,11,12,1.0,1.0,1.0*30
$GPRMC,120005.100,A,4149.655,N,00048.667,W,038.9,115.4,150725,000.0,W*6D
$GPGGA,120005.200,4149.654,N,00048.666,W,1,12,1.0,0.0,M,0.0,M,,*7D
$GPGSA,A,3,01,02,03,04,05,06,07,08,09,10,11,12,1.0,1.0,1.0*30
$GPRMC,120005.200,A,4149.654,N,00048.666,W,038.9,115.4,150725,000.0,W*6E
$GPGGA,120005.300,4149.654,N,00048.664,W,1,12,1.0,0.0,M,0.0,M,,*7E
$GPGSA,A,3,01,02,03,04,05,06,07,08,09,10,11,12,1.0,1.0,1.0*30
$GPRMC,120005.300,A,4149.654,N,00048.664,W,038.9,120.7,150725,000.0,W*68
$GPGGA,120005.400,4149.653,N,00048.663,W,1,12,1.0,0.0,M,0.0,M,,*79
$GPGSA,A,3,01,02,03,04,05,06,07,08,09,10,11,12,1.0,1.0,1.0*30
$GPRMC,120005.400,A,4149.653,N,00048.663,W,038.9,120.7,150725,000.0,W*6F
$GPGGA,120005.500,4149.653,N,00048.662,W,1,12,1.0,0.0,M,0.0,M,,*79
$GPGSA,A,3,01,02,03,04,05,06,07,08,09,10,11,12,1.0,1.0,1.0*30
$GPRMC,120005.500,A,4149.653,N,00048.662,W,038.9,120.7,150725,000.0,W*6F
$GPGGA,120005.600,4149.652,N,00048.661,W,1,12,1.0,0.0,M,0.0,M,,*78
$GPGSA,A,3,01,02,03,04,05,06,07,08,09,10,11,12,1.0,1.0,1.0*30
$GPRMC,120005.600,A,4149.652,N,00048.661,W,038.9,120.7,150725,000.0,W*6E
$GPGGA,120005.700,4149.652,N,00048.659,W,1,12,1.0,0.0,M,0.0,M,,*72
$GPGSA,A,3,01,02,03,04,05,06,07,08,09,10,11,12,1.0,1.0,1.0*30
$GPRMC,120005.700,A,4149.652,N,00048.659,W,038.9,120.7,150725,000.0,W*64
$GPGGA,120005.800,4149.651,N,00048.658,W,1,12,1.0,0.0,M,0.0,M,,*7F
$GPGSA,A,3,01,02,03,04,05,06,07,08,09,10,11,12,1.0,1.0,1.0*30
$GPRMC,120005.800,A,4149.651,N,00048.658,W,038.9,123.8,150725,000.0,W*65
$GPGGA,120005.900,4149.650,N,00048.657,W,1,12,1.0,0.0,M,0.0,M,,*70
$GPGSA,A,3,01,02,03,04,05,06,07,08,09,10,11,12,1.0,1.0,1.0*30
$GPRMC,120005.900,A,4149.650,N,00048.657,W,038.9,123.8,150725,000.0,W*6A
$GPGGA,120006.000,4149.650,N,00048.656,W,1,12,1.0,0.0,M,0.0,M,,*7B
$GPGSA,A,3,01,02,03,04,05,06,07,08,09,10,11,12,1.0,1.0,1.0*30
$GPRMC,120006.000,A,4149.650,N,00048.656,W,038.9,123.8,150725,000.0,W*61
$GPGGA,120006.100,4149.649,N,00048.654,W,1,12,1.0,0.0,M,0.0,M,,*70
$GPGSA,A,3,01,02,03,04,05,06,07,08,09,10,11,12,1.0,1.0,1.0*30
$GPRMC,120006.100,A,4149.649,N,00048.654,W,038.9,140.1,150725,000.0,W*66
$GPGGA,120006.200,4149.648,N,00048.653,W,1,12,1.0,0.0,M,0.0,M,,*75
$GPGSA,A,3,01,02,03,04,05,06,07,08,09,10,11,12,1.0,1.0,1.0*30
$GPRMC,120006.200,A,4149.648,N,00048.653,W,038.9,140.1,150725,000.0,W*63
$GPGGA,120006.300,4149.648,N,00048.653,W,1,12,1.0,0.0,M,0.0,M,,*74
$GPGSA,A,3,01,02,03,04,05,06,07,08,09,10,11,12,1.0,1.0,1.0*30
$GPRMC,120006.300,A,4149.648,N,00048.653,W,038.9,140.1,150725,000.0,W*62
$GPGGA,120006.400,4149.647,N,00048.652,W,1,12,1.0,0.0,M,0.0,M,,*7D
$GPGSA,A,3,01,02,03,04,05,06,07,08,09,10,11,12,1.0,1.0,1.0*30
$GPRMC,120006.400,A,4149.647,N,00048.652,W,038.9,140.1,150725,000.0,W*6B
$GPGGA,120006.500,4149.646,N,00048.651,W,1,12,1.0,0.0,M,0.0,M,,*7E
$GPGSA,A,3,01,02,03,04,05,06,07,08,09,10,11,12,1.0,1.0,1.0*30
$GPRMC,120006.500,A,4149.646,N,00048.651,W,038.9,146.7,150725,000.0,W*68
$GPGGA,120006.600,4149.645,N,00048.650,W,1,12,1.0,0.0,M,0.0,M,,*7F
$GPGSA,A,3,01,02,03,04,05,06,07,08,09,10,11,12,1.0,1.0,1.0*30
$GPRMC,120006.600,A,4149.645,N,00048.650,W,038.9,146.7,150725,000.0,W*69
$GPGGA,120006.700,4149.644,N,00048.649,W,1,12,1.0,0.0,M,0.0,M,,*77
$GPGSA,A,3,01,02,03,04,05,06,07,08,09,10,11,12,1.0,1.0,1.0*30
$GPRMC,120006.700,A,4149.644,N,00048.649,W,038.9,146.7,150725,000.0,W*61
$GPGGA,120006.800,4149.643,N,00048.648,W,1,12,1.0,0.0,M,0.0,M,,*7E
$GPGSA,A,3,01,02,03,04,05,06,07,08,09,10,11,12,1.0,1.0,1.0*30
$GPRMC,120006.800,A,4149.643,N,00048.648,W,038.9,146.7,150725,000.0,W*68
$GPGGA,120006.900,4149.642,N,00048.648,W,1,12,1.0,0.0,M,0.0,M,,*7E
$GPGSA,A,3,01,02,03,04,05,06,07,08,09,10,11,12,1.0,1.0,1.0*30
$GPRMC,120006.900,A,4149.642,N,00048.648,W,038.9,146.7,150725,000.0,W*68
$GPGGA,120007.000,4149.641,N,00048.647,W,1,12,1.0,0.0,M,0.0,M,,*7A
$GPGSA,A,3,01,02,03,04,05,06,07,08,09,10,11,12,1.0,1.0,1.0*30
$GPRMC,120007.000,A,4149.641,N,00048.647,W,038.9,146.7,150725,000.0,W*6C
$GPGGA,120007.100,4149.641,N,00048.646,W,1,12,1.0,0.0,M,0.0,M,,*7A
$GPGSA,A,3,01,02,03,04,05,06,07,08,09,10,11,12,1.0,1.0,1.0*30
$GPRMC,120007.100,A,4149.641,N,00048.646,W,038.9,158.8,150725,000.0,W*6C
$GPGGA,120007.200,4149.639,N,00048.645,W,1,12,1.0,0.0,M,0.0,M,,*75
$GPGSA,A,3,01,02,03,04,05,06,07,08,09,10,11,12,1.0,1.0,1.0*30
$GPRMC,120007.200,A,4149.639,N,00048.645,W,038.9,158.8,150725,000.0,W*63
$GPGGA,120007.300,4149.638,N,00048.645,W,1,12,1.0,0.0,M,0.0,M,,*75
$GPGSA,A,3,01,02,03,04,05,06,07,08,09,10,11,12,1.0,1.0,1.0*30
$GPRMC,120007.300,A,4149.638,N,00048.645,W,038.9,158.8,150725,000.0,W*63
$GPGGA,120007.400,4149.637,N,00048.644,W,1,12,1.0,0.0,M,0.0,M,,*7C
$GPGSA,A,3,01,02,03,04,05,06,07,08,09,10,11,12,1.0,1.0,1.0*30
$GPRMC,120007.400,A,4149.637,N,00048.644,W,038.9,158.8,150725,000.0,W*6A
$GPGGA,120007.500,4149.636,N,00048.644,W,1,12,1.0,0.0,M,0.0,M,,*7C
$GPGSA,A,3,01,02,03,04,05,06,07,08,09,10,11,12,1.0,1.0,1.0*30
$GPRMC,120007.500,A,4149.636,N,00048.644,W,038.9,158.8,150725,000.0,W*6A
$GPGGA,120007.600,4149.635,N,00048.643,W,1,12,1.0,0.0,M,0.0,M,,*7B
$GPGSA,A,3,01,02,03,04,05,06,07,08,09,10,11,12,1.0,1.0,1.0*30
$GPRMC,120007.600,A,4149.635,N,00048.643,W,038.9,163.9,150725,000.0,W*64
$GPGGA,120007.700,4149.634,N,00048.643,W,1,12,1.0,0.0,M,0.0,M,,*7B
$GPGSA,A,3,01,02,03,04,05,06,07,08,09,10,11,12,1.0,1.0,1.0*30
$GPRMC,120007.700,A,4149.634,N,00048.643,W,038.9,163.9,150725,000.0,W*64
$GPGGA,120007.800,4149.633,N,00048.643,W,1,12,1.0,0.0,M,0.0,M,,*73
$GPGSA,A,3,01,02,03,04,05,06,07,08,09,10,11,12,1.0,1.0,1.0*30
$GPRMC,120007.800,A,4149.633,N,00048.643,W,038.9,163.9,150725,000.0,W*6C
$GPGGA,120007.900,4149.632,N,00048.642,W,1,12,1.0,0.0,M,0.0,M,,*72
$GPGSA,A,3,01,02,03,04,05,06,07,08,09,10,11,12,1.0,1.0,1.0*30
$GPRMC,120007.900,A,4149.632,N,00048.642,W,038.9,163.9,150725,000.0,W*6D
$GPGGA,120008.000,4149.631,N,00048.642,W,1,12,1.0,0.0,M,0.0,M,,*77
$GPGSA,A,3,01,02,03,04,05,06,07,08,09,10,11,12,1.0,1.0,1.0*30
$GPRMC,120008.000,A,4149.631,N,00048.642,W,038.9,177.9,150725,000.0,W*6D
$GPGGA,120008.100,4149.630,N,00048.642,W,1,12,1.0,0.0,M,0.0,M,,*77
$GPGSA,A,3,01,02,03,04,05,06,07,08,09,10,11,12,1.0,1.0,1.0*30
$GPRMC,120008.100,A,4149.630,N,00048.642,W,038.9,177.9,150725,000.0,W*6D
$GPGGA,120008.200,4149.629,N,00048.642,W,1,12,1.0,0.0,M,0.0,M,,*7C
$GPGSA,A,3,01,02,03,04,05,06,07,08,09,10,11,12,1.0,1.0,1.0*30
$GPRMC,120008.200,A,4149.629,N,00048.642,W,038.9,177.9,150725,000.0,W*66
$GPGGA,120008.300,4149.628,N,00048.642,W,1,12,1.0,0.0,M,0.0,M,,*7C
$GPGSA,A,3,01,02,03,04,05,06,07,08,09,10,11,12,1.0,1.0,1.0*30
$GPRMC,120008.300,A,4149.628,N,00048.642,W,038.9,178.3,150725,000.0,W*63
$GPGGA,120008.400,4149.627,N,00048.642,W,1,12,1.0,0.0,M,0.0,M,,*74
$GPGSA,A,3,01,02,03,04,05,06,07,08,09,10,11,12,1.0,1.0,1.0*30
$GPRMC,120008.400,A,4149.627,N,00048.642,W,038.9,178.3,150725,000.0,W*6B
$GPGGA,120008.500,4149.626,N,00048.641,W,1,12,1.0,0.0,M,0.0,M,,*77
$GPGSA,A,3,01,02,03,04,05,06,07,08,09,10,11,12,1.0,1.0,1.0*30
$GPRMC,120008.500,A,4149.626,N,00048.641,W,038.9,188.6,150725,000.0,W*62
$GPGGA,120008.600,4149.625,N,00048.642,W,1,12,1.0,0.0,M,0.0,M,,*74
$GPGSA,A,3,01,02,03,04,05,06,07,08,09,10,11,12,1.0,1.0,1.0*30
$GPRMC,120008.600,A,4149.625,N,00048.642,W,038.9,188.6,150725,000.0,W*61
$GPGGA,120008.700,4149.624,N,00048.642,W,1,12,1.0,0.0,M,0.0,M,,*74
$GPGSA,A,3,01,02,03,04,05,06,07,08,09,10,11,12,1.0,1.0,1.0*30
$GPRMC,120008.700,A,4149.624,N,00048.642,W,038.9,188.6,150725,000.0,W*61
$GPGGA,120008.800,4149.623,N,00048.642,W,1,12,1.0,0.0,M,0.0,M,,*7C
$GPGSA,A,3,01,02,03,04,05,06,07,08,09,10,11,12,1.0,1.0,1.0*30
$GPRMC,120008.800,A,4149.623,N,00048.642,W,038.9,188.6,150725,000.0,W*69
$GPGGA,120008.900,4149.622,N,00048.642,W,1,12,1.0,0.0,M,0.0,M,,*7C
$GPGSA,A,3,01,02,03,04,05,06,07,08,09,10,11,12,1.0,1.0,1.0*30
$GPRMC,120008.900,A,4149.622,N,00048.642,W,038.9,190.2,150725,000.0,W*64
$GPGGA,120009.000,4149.621,N,00048.643,W,1,12,1.0,0.0,M,0.0,M,,*76
$GPGSA,A,3,01,02,03,04,05,06,07,08,09,10,11,12,1.0,1.0,1.0*30
$GPRMC,120009.000,A,4149.621,N,00048.643,W,038.9,190.2,150725,000.0,W*6E
$GPGGA,120009.100,4149.620,N,00048.643,W,1,12,1.0,0.0,M,0.0,M,,*76
$GPGSA,A,3,01,02,03,04,05,06,07,08,09,10,11,12,1.0,1.0,1.0*30
$GPRMC,120009.100,A,4149.620,N,00048.643,W,038.9,190.2,150725,000.0,W*6E
$GPGGA,120009.200,4149.618,N,00048.643,W,1,12,1.0,0.0,M,0.0,M,,*7E
$GPGSA,A,3,01,02,03,04,05,06,07,08,09,10,11,12,1.0,1.0,1.0*30
$GPRMC,120009.200,A,4149.618,N,00048.643,W,038.9,203.8,150725,000.0,W*65
$GPGGA,120009.300,4149.617,N,00048.644,W,1,12,1.0,0.0,M,0.0,M,,*77
$GPGSA,A,3,01,02,03,04,05,06,07,08,09,10,11,12,1.0,1.0,1.0*30
$GPRMC,120009.300,A,4149.617,N,00048.644,W,038.9,203.8,150725,000.0,W*6C
$GPGGA,120009.400,4149.617,N,00048.644,W,1,12,1.0,0.0,M,0.0,M,,*70
$GPGSA,A,3,01,02,03,04,05,06,07,08,09,10,11,12,1.0,1.0,1.0*30
$GPRMC,120009.400,A,4149.617,N,00048.644,W,038.9,203.8,150725,000.0,W*6B
$GPGGA,120009.500,4149.616,N,00048.645,W,1,12,1.0,0.0,M,0.0,M,,*71
$GPGSA,A,3,01,02,03,04,05,06,07,08,09,10,11,12,1.0,1.0,1.0*30
$GPRMC,120009.500,A,4149.616,N,00048.645,W,038.9,203.8,150725,000.0,W*6A
$GPGGA,120009.600,4149.615,N,00048.645,W,1,12,1.0,0.0,M,0.0,M,,*71
$GPGSA,A,3,01,02,03,04,05,06,07,08,09,10,11,12,1.0,1.0,1.0*30
$GPRMC,120009.600,A,4149.615,N,00048.645,W,038.9,203.8,150725,000.0,W*6A
$GPGGA,120009.700,4149.614,N,00048.646,W,1,12,1.0,0.0,M,0.0,M,,*72
$GPGSA,A,3,01,02,03,04,05,06,07,08,09,10,11,12,1.0,1.0,1.0*30
$GPRMC,120009.700,A,4149.614,N,00048.646,W,038.9,203.8,150725,000.0,W*69
$GPGGA,120009.800,4149.613,N,00048.647,W,1,12,1.0,0.0,M,0.0,M,,*7B
$GPGSA,A,3,01,02,03,04,05,06,07,08,09,10,11,12,1.0,1.0,1.0*30
$GPRMC,120009.800,A,4149.613,N,00048.647,W,038.9,203.8,150725,000.0,W*60
$GPGGA,120009.900,4149.612,N,00048.647,W,1,12,1.0,0.0,M,0.0,M,,*7B
$GPGSA,A,3,01,02,03,04,05,06,07,08,09,10,11,12,1.0,1.0,1.0*30
$GPRMC,120009.900,A,4149.612,N,00048.647,W,038.9,203.8,150725,000.0,W*60
$GPGGA,120010.000,4149.611,N,00048.648,W,1,12,1.0,0.0,M,0.0,M,,*76
$GPGSA,A,3,01,02,03,04,05,06,07,08,09,10,11,12,1.0,1.0,1.0*30
$GPRMC,120010.000,A,4149.611,N,00048.648,W,038.9,203.8,150725,000.0,W*6D
$GPGGA,120010.100,4149.610,N,00048.648,W,1,12,1.0,0.0,M,0.0,M,,*76
$GPGSA,A,3,01,02,03,04,05,06,07,08,09,10,11,12,1.0,1.0,1.0*30
$GPRMC,120010.100,A,4149.610,N,00048.648,W,038.9,203.8,150725,000.0,W*6D
$GPGGA,120010.200,4149.609,N,00048.649,W,1,12,1.0,0.0,M,0.0,M,,*7C
$GPGSA,A,3,01,02,03,04,05,06,07,08,09,10,11,12,1.0,1.0,1.0*30
$GPRMC,120010.200,A,4149.609,N,00048.649,W,038.9,203.8,150725,000.0,W*67
$GPGGA,120010.300,4149.608,N,00048.650,W,1,12,1.0,0.0,M,0.0,M,,*74
$GPGSA,A,3,01,02,03,04,05,06,07,08,09,10,11,12,1.0,1.0,1.0*30
$GPRMC,120010.300,A,4149.608,N,00048.650,W,038.9,203.8,150725,000.0,W*6F
$GPGGA,120010.400,4149.607,N,00048.650,W,1,12,1.0,0.0,M,0.0,M,,*7C
$GPGSA,A,3,01,02,03,04,05,06,07,08,09,10,11,12,1.0,1.0,1.0*30
$GPRMC,120010.400,A,4149.607,N,00048.650,W,038.9,203.8,150725,000.0,W*67
$GPGGA,120010.500,4149.606,N,00048.651,W,1,12,1.0,0.0,M,0.0,M,,*7D
$GPGSA,A,3,01,02,03,04,05,06,07,08,09,10,11,12,1.0,1.0,1.0*30
$GPRMC,120010.500,A,4149.606,N,00048.651,W,038.9,203.8,150725,000.0,W*66
$GPGGA,120010.600,4149.605,N,00048.651,W,1,12,1.0,0.0,M,0.0,M,,*7D
$GPGSA,A,3,01,02,03,04,05,06,07,08,09,10,11,12,1.0,1.0,1.0*30
$GPRMC,120010.600,A,4149.605,N,00048.651,W,038.9,203.8,150725,000.0,W*66
$GPGGA,120010.700,4149.604,N,00048.652,W,1,12,1.0,0.0,M,0.0,M,,*7E
$GPGSA,A,3,01,02,03,04,05,06,07,08,09,10,11,12,1.0,1.0,1.0*30
$GPRMC,120010.700,A,4149.604,N,00048.652,W,038.9,203.8,150725,000.0,W*65
$GPGGA,120010.800,4149.603,N,00048.652,W,1,12,1.0,0.0,M,0.0,M,,*76
$GPGSA,A,3,01,02,03,04,05,06,07,08,09,10,11,12,1.0,1.0,1.0*30
$GPRMC,120010.800,A,4149.603,N,00048.652,W,038.9,203.8,150725,000.0,W*6D
$GPGGA,120010.900,4149.602,N,00048.653,W,1,12,1.0,0.0,M,0.0,M,,*77
$GPGSA,A,3,01,02,03,04,05,06,07,08,09,10,11,12,1.0,1.0,1.0*30
$GPRMC,120010.900,A,4149.602,N,00048.653,W,038.9,203.8,150725,000.0,W*6C
$GPGGA,120011.000,4149.601,N,00048.654,W,1,12,1.0,0.0,M,0.0,M,,*7B
$GPGSA,A,3,01,02,03,04,05,06,07,08,09,10,11,12,1.0,1.0,1.0*30
$GPRMC,120011.000,A,4149.601,N,00048.654,W,038.9,203.8,150725,000.0,W*60
$GPGGA,120011.100,4149.600,N,00048.654,W,1,12,1.0,0.0,M,0.0,M,,*7B
$GPGSA,A,3,01,02,03,04,05,06,07,08,09,10,11,12,1.0,1.0,1.0*30
$GPRMC,120011.100,A,4149.600,N,00048.654,W,038.9,203.8,150725,000.0,W*60
$GPGGA,120011.200,4149.599,N,00048.655,W,1,12,1.0,0.0,M,0.0,M,,*7A
$GPGSA,A,3,01,02,03,04,05,06,07,08,09,10,11,12,1.0,1.0,1.0*30
$GPRMC,120011.200,A,4149.599,N,00048.655,W,038.9,203.8,150725,000.0,W*61
$GPGGA,120011.300,4149.598,N,00048.655,W,1,12,1.0,0.0,M,0.0,M,,*7A
$GPGSA,A,3,01,02,03,04,05,06,07,08,09,10,11,12,1.0,1.0,1.0*30
$GPRMC,120011.300,A,4149.598,N,00048.655,W,038.9,203.8,150725,000.0,W*61
$GPGGA,120011.400,4149.597,N,00048.656,W,1,12,1.0,0.0,M,0.0,M,,*71
$GPGSA,A,3,01,02,03,04,05,06,07,08,09,10,11,12,1.0,1.0,1.0*30
$GPRMC,120011.400,A,4149.597,N,00048.656,W,038.9,203.8,150725,000.0,W*6A
$GPGGA,120011.500,4149.596,N,00048.657,W,1,12,1.0,0.0,M,0.0,M,,*70
$GPGSA,A,3,01,02,03,04,05,06,07,08,09,10,11,12,1.0,1.0,1.0*30
$GPRMC,120011.500,A,4149.596,N,00048.657,W,038.9,203.8,150725,000.0,W*6B
$GPGGA,120011.600,4149.595,N,00048.657,W,1,12,1.0,0.0,M,0.0,M,,*70
$GPGSA,A,3,01,02,03,04,05,06,07,08,09,10,11,12,1.0,1.0,1.0*30
$GPRMC,120011.600,A,4149.595,N,00048.657,W,038.9,203.8,150725,000.0,W*6B
$GPGGA,120011.700,4149.594,N,00048.658,W,1,12,1.0,0.0,M,0.0,M,,*7F
$GPGSA,A,3,01,02,03,04,05,06,07,08,09,10,11,12,1.0,1.0,1.0*30
$GPRMC,120011.700,A,4149.594,N,00048.658,W,038.9,203.8,150725,000.0,W*64
$GPGGA,120011.800,4149.593,N,00048.658,W,1,12,1.0,0.0,M,0.0,M,,*77
$GPGSA,A,3,01,02,03,04,05,06,07,08,09,10,11,12,1.0,1.0,1.0*30
$GPRMC,120011.800,A,4149.593,N,00048.658,W,038.9,203.8,150725,000.0,W*6C
$GPGGA,120011.900,4149.592,N,00048.659,W,1,12,1.0,0.0,M,0.0,M,,*76
$GPGSA,A,3,01,02,03,04,05,06,07,08,09,10,11,12,1.0,1.0,1.0*30
$GPRMC,120011.900,A,4149.592,N,00048.659,W,038.9,203.8,150725,000.0,W*6D
$GPGGA,120012.000,4149.591,N,00048.659,W,1,12,1.0,0.0,M,0.0,M,,*7F
$GPGSA,A,3,01,02,03,04,05,06,07,08,09,10,11,12,1.0,1.0,1.0*30
$GPRMC,120012.000,A,4149.591,N,00048.659,W,038.9,203.8,150725,000.0,W*64
$GPGGA,120012.100,4149.590,N,00048.660,W,1,12,1.0,0.0,M,0.0,M,,*75
$GPGSA,A,3,01,02,03,04,05,06,07,08,09,10,11,12,1.0,1.0,1.0*30
$GPRMC,120012.100,A,4149.590,N,00048.660,W,038.9,203.8,150725,000.0,W*6E
$GPGGA,120012.200,4149.589,N,00048.661,W,1,12,1.0,0.0,M,0.0,M,,*7F
$GPGSA,A,3,01,02,03,04,05,06,07,08,09,10,11,12,1.0,1.0,1.0*30
$GPRMC,120012.200,A,4149.589,N,00048.661,W,038.9,203.8,150725,000.0,W*64
$GPGGA,120012.300,4149.588,N,00048.661,W,1,12,1.0,0.0,M,0.0,M,,*7F
$GPGSA,A,3,01,02,03,04,05,06,07,08,09,10,11,12,1.0,1.0,1.0*30
$GPRMC,120012.300,A,4149.588,N,00048.661,W,038.9,203.8,150725,000.0,W*64
$GPGGA,120012.400,4149.587,N,00048.662,W,1,12,1.0,0.0,M,0.0,M,,*74
$GPGSA,A,3,01,02,03,04,05,06,07,08,09,10,11,12,1.0,1.0,1.0*30
$GPRMC,120012.400,A,4149.587,N,00048.662,W,038.9,203.8,150725,000.0,W*6F
$GPGGA,120012.500,4149.586,N,00048.662,W,1,12,1.0,0.0,M,0.0,M,,*74
$GPGSA,A,3,01,02,03,04,05,06,07,08,09,10,11,12,1.0,1.0,1.0*30
$GPRMC,120012.500,A,4149.586,N,00048.662,W,038.9,203.8,150725,000.0,W*6F
$GPGGA,120012.600,4149.585,N,00048.663,W,1,12,1.0,0.0,M,0.0,M,,*75
$GPGSA,A,3,01,02,03,04,05,06,07,08,09,10,11,12,1.0,1.0,1.0*30
$GPRMC,120012.600,A,4149.585,N,00048.663,W,038.9,203.8,150725,000.0,W*6E
$GPGGA,120012.700,4149.584,N,00048.664,W,1,12,1.0,0.0,M,0.0,M,,*72
$GPGSA,A,3,01,02,03,04,05,06,07,08,09,10,11,12,1.0,1.0,1.0*30
$GPRMC,120012.700,A,4149.584,N,00048.664,W,038.9,203.8,150725,000.0,W*69
$GPGGA,120012.800,4149.583,N,00048.664,W,1,12,1.0,0.0,M,0.0,M,,*7A
$GPGSA,A,3,01,02,03,04,05,06,07,08,09,10,11,12,1.0,1.0,1.0*30
$GPRMC,120012.800,A,4149.583,N,00048.664,W,038.9,203.8,150725,000.0,W*61
$GPGGA,120012.900,4149.582,N,00048.665,W,1,12,1.0,0.0,M,0.0,M,,*7B
$GPGSA,A,3,01,02,03,04,05,06,07,08,09,10,11,12,1.0,1.0,1.0*30
$GPRMC,120012.900,A,4149.582,N,00048.665,W,038.9,203.8,150725,000.0,W*60
$GPGGA,120013.000,4149.581,N,00048.665,W,1,12,1.0,0.0,M,0.0,M,,*70
$GPGSA,A,3,01,02,03,04,05,06,07,08,09,10,11,12,1.0,1.0,1.0*30
$GPRMC,120013.000,A,4149.581,N,00048.665,W,038.9,203.8,150725,000.0,W*6B
$GPGGA,120013.100,4149.580,N,00048.666,W,1,12,1.0,0.0,M,0.0,M,,*73
$GPGSA,A,3,01,02,03,04,05,06,07,08,09,10,11,12,1.0,1.0,1.0*30
$GPRMC,120013.100,A,4149.580,N,00048.666,W,038.9,203.8,150725,000.0,W*68
$GPGGA,120013.200,4149.579,N,00048.666,W,1,12,1.0,0.0,M,0.0,M,,*76
$GPGSA,A,3,01,02,03,04,05,06,07,08,09,10,11,12,1.0,1.0,1.0*30
$GPRMC,120013.200,A,4149.579,N,00048.666,W,038.9,203.8,150725,000.0,W*6D
$GPGGA,120013.300,4149.578,N,00048.667,W,1,12,1.0,0.0,M,0.0,M,,*77
$GPGSA,A,3,01,02,03,04,05,06,07,08,09,10,11,12,1.0,1.0,1.0*30
$GPRMC,120013.300,A,4149.578,N,00048.667,W,038.9,203.8,150725,000.0,W*6C
$GPGGA,120013.400,4149.577,N,00048.668,W,1,12,1.0,0.0,M,0.0,M,,*70
$GPGSA,A,3,01,02,03,04,05,06,07,08,09,10,11,12,1.0,1.0,1.0*30
$GPRMC,120013.400,A,4149.577,N,00048.668,W,038.9,203.8,150725,000.0,W*6B
$GPGGA,120013.500,4149.576,N,00048.668,W,1,12,1.0,0.0,M,0.0,M,,*70
$GPGSA,A,3,01,02,03,04,05,06,07,08,09,10,11,12,1.0,1.0,1.0*30
$GPRMC,120013.500,A,4149.576,N,00048.668,W,038.9,203.8,150725,000.0,W*6B
$GPGGA,120013.600,4149.575,N,00048.669,W,1,12,1.0,0.0,M,0.0,M,,*71
$GPGSA,A,3,01,02,03,04,05,06,07,08,09,10,11,12,1.0,1.0,1.0*30
$GPRMC,120013.600,A,4149.575,N,00048.669,W,038.9,203.8,150725,000.0,W*6A
$GPGGA,120013.700,4149.574,N,00048.669,W,1,12,1.0,0.0,M,0.0,M,,*71
$GPGSA,A,3,01,02,03,04,05,06,07,08,09,10,11,12,1.0,1.0,1.0*30
$GPRMC,120013.700,A,4149.574,N,00048.669,W,038.9,203.8,150725,000.0,W*6A
$GPGGA,120013.800,4149.573,N,00048.670,W,1,12,1.0,0.0,M,0.0,M,,*71
$GPGSA,A,3,01,02,03,04,05,06,07,08,09,10,11,12,1.0,1.0,1.0*30
$GPRMC,120013.800,A,4149.573,N,00048.670,W,038.9,203.8,150725,000.0,W*6A
$GPGGA,120013.900,4149.572,N,00048.671,W,1,12,1.0,0.0,M,0.0,M,,*70
$GPGSA,A,3,01,02,03,04,05,06,07,08,09,10,11,12,1.0,1.0,1.0*30
$GPRMC,120013.900,A,4149.572,N,00048.671,W,038.9,203.8,150725,000.0,W*6B
$GPGGA,120014.000,4149.571,N,00048.671,W,1,12,1.0,0.0,M,0.0,M,,*7D
$GPGSA,A,3,01,02,03,04,05,06,07,08,09,10,11,12,1.0,1.0,1.0*30
$GPRMC,120014.000,A,4149.571,N,00048.671,W,038.9,203.8,150725,000.0,W*66
$GPGGA,120014.100,4149.570,N,00048.672,W,1,12,1.0,0.0,M,0.0,M,,*7E
$GPGSA,A,3,01,02,03,04,05,06,07,08,09,10,11,12,1.0,1.0,1.0*30
$GPRMC,120014.100,A,4149.570,N,00048.672,W,038.9,203.8,150725,000.0,W*65
$GPGGA,120014.200,4149.569,N,00048.672,W,1,12,1.0,0.0,M,0.0,M,,*75
$GPGSA,A,3,01,02,03,04,05,06,07,08,09,10,11,12,1.0,1.0,1.0*30
$GPRMC,120014.200,A,4149.569,N,00048.672,W,038.9,203.7,150725,000.0,W*61
$GPGGA,120014.300,4149.568,N,00048.673,W,1,12,1.0,0.0,M,0.0,M,,*74
$GPGSA,A,3,01,02,03,04,05,06,07,08,09,10,11,12,1.0,1.0,1.0*30
$GPRMC,120014.300,A,4149.568,N,00048.673,W,038.9,203.7,150725,000.0,W*60
$GPGGA,120014.400,4149.567,N,00048.674,W,1,12,1.0,0.0,M,0.0,M,,*7B
$GPGSA,A,3,01,02,03,04,05,06,07,08,09,10,11,12,1.0,1.0,1.0*30
$GPRMC,120014.400,A,4149.567,N,00048.674,W,038.9,203.7,150725,000.0,W*6F
$GPGGA,120014.500,4149.566,N,00048.674,W,1,12,1.0,0.0,M,0.0,M,,*7B
$GPGSA,A,3,01,02,03,04,05,06,07,08,09,10,11,12,1.0,1.0,1.0*30
$GPRMC,120014.500,A,4149.566,N,00048.674,W,038.9,203.7,150725,000.0,W*6F
$GPGGA,120014.600,4149.565,N,00048.675,W,1,12,1.0,0.0,M,0.0,M,,*7A
$GPGSA,A,3,01,02,03,04,05,06,07,08,09,10,11,12,1.0,1.0,1.0*30
$GPRMC,120014.600,A,4149.565,N,00048.675,W,038.9,203.7,150725,000.0,W*6E
$GPGGA,120014.700,4149.564,N,00048.675,W,1,12,1.0,0.0,M,0.0,M,,*7A
$GPGSA,A,3,01,02,03,04,05,06,07,08,09,10,11,12,1.0,1.0,1.0*30
$GPRMC,120014.700,A,4149.564,N,00048.675,W,038.9,203.7,150725,000.0,W*6E
$GPGGA,120014.800,4149.563,N,00048.676,W,1,12,1.0,0.0,M,0.0,M,,*71
$GPGSA,A,3,01,02,03,04,05,06,07,08,09,10,11,12,1.0,1.0,1.0*30
$GPRMC,120014.800,A,4149.563,N,00048.676,W,038.9,203.7,150725,000.0,W*65
$GPGGA,120014.900,4149.562,N,00048.676,W,1,12,1.0,0.0,M,0.0,M,,*71
$GPGSA,A,3,01,02,03,04,05,06,07,08,09,10,11,12,1.0,1.0,1.0*30
$GPRMC,120014.900,A,4149.562,N,00048.676,W,038.9,203.7,150725,000.0,W*65
$GPGGA,120015.000,4149.561,N,00048.677,W,1,12,1.0,0.0,M,0.0,M,,*7B
$GPGSA,A,3,01,02,03,04,05,06,07,08,09,10,11,12,1.0,1.0,1.0*30
$GPRMC,120015.000,A,4149.561,N,00048.677,W,038.9,203.7,150725,000.0,W*6F
$GPGGA,120015.100,4149.560,N,00048.678,W,1,12,1.0,0.0,M,0.0,M,,*74
$GPGSA,A,3,01,02,03,04,05,06,07,08,09,10,11,12,1.0,1.0,1.0*30
$GPRMC,120015.100,A,4149.560,N,00048.678,W,038.9,203.7,150725,000.0,W*60
$GPGGA,120015.200,4149.559,N,00048.678,W,1,12,1.0,0.0,M,0.0,M,,*7D
$GPGSA,A,3,01,02,03,04,05,06,07,08,09,10,11,12,1.0,1.0,1.0*30
$GPRMC,120015.200,A,4149.559,N,00048.678,W,038.9,203.7,150725,000.0,W*69
$GPGGA,120015.300,4149.558,N,00048.679,W,1,12,1.0,0.0,M,0.0,M,,*7C
$GPGSA,A,3,01,02,03,04,05,06,07,08,09,10,11,12,1.0,1.0,1.0*30
$GPRMC,120015.300,A,4149.558,N,00048.679,W,038.9,203.7,150725,000.0,W*68
$GPGGA,120015.400,4149.557,N,00048.679,W,1,12,1.0,0.0,M,0.0,M,,*74
$GPGSA,A,3,01,02,03,04,05,06,07,08,09,10,11,12,1.0,1.0,1.0*30
$GPRMC,120015.400,A,4149.557,N,00048.679,W,038.9,203.7,150725,000.0,W*60
$GPGGA,120015.500,4149.556,N,00048.680,W,1,12,1.0,0.0,M,0.0,M,,*72
$GPGSA,A,3,01,02,03,04,05,06,07,08,09,10,11,12,1.0,1.0,1.0*30
$GPRMC,120015.500,A,4149.556,N,00048.680,W,038.9,203.7,150725,000.0,W*66
$GPGGA,120015.600,4149.555,N,00048.681,W,1,12,1.0,0.0,M,0.0,M,,*73
$GPGSA,A,3,01,02,03,04,05,06,07,08,09,10,11,12,1.0,1.0,1.0*30
$GPRMC,120015.600,A,4149.555,N,00048.681,W,038.9,203.7,150725,000.0,W*67
$GPGGA,120015.700,4149.554,N,00048.681,W,1,12,1.0,0.0,M,0.0,M,,*73
$GPGSA,A,3,01,02,03,04,05,06,07,08,09,10,11,12,1.0,1.0,1.0*30
$GPRMC,120015.700,A,4149.554,N,00048.681,W,038.9,214.1,150725,000.0,W*67
$GPGGA,120015.800,4149.553,N,00048.682,W,1,12,1.0,0.0,M,0.0,M,,*78
$GPGSA,A,3,01,02,03,04,05,06,07,08,09,10,11,12,1.0,1.0,1.0*30
$GPRMC,120015.800,A,4149.553,N,00048.682,W,038.9,228.3,150725,000.0,W*61
$GPGGA,120015.900,4149.553,N,00048.683,W,1,12,1.0,0.0,M,0.0,M,,*78
$GPGSA,A,3,01,02,03,04,05,06,07,08,09,10,11,12,1.0,1.0,1.0*30
$GPRMC,120015.900,A,4149.553,N,00048.683,W,038.9,230.1,150725,000.0,W*6A
$GPGGA,120016.000,4149.552,N,00048.684,W,1,12,1.0,0.0,M,0.0,M,,*74
$GPGSA,A,3,01,02,03,04,05,06,07,08,09,10,11,12,1.0,1.0,1.0*30
$GPRMC,120016.000,A,4149.552,N,00048.684,W,038.9,244.1,150725,000.0,W*65
$GPGGA,120016.100,4149.552,N,00048.685,W,1,12,1.0,0.0,M,0.0,M,,*74
$GPGSA,A,3,01,02,03,04,05,06,07,08,09,10,11,12,1.0,1.0,1.0*30
$GPRMC,120016.100,A,4149.552,N,00048.685,W,038.9,263.7,150725,000.0,W*66
$GPGGA,120016.200,4149.551,N,00048.687,W,1,12,1.0,0.0,M,0.0,M,,*76
$GPGSA,A,3,01,02,03,04,05,06,07,08,09,10,11,12,1.0,1.0,1.0*30
$GPRMC,120016.200,A,4149.551,N,00048.687,W,038.9,263.7,150725,000.0,W*64
$GPGGA,120016.300,4149.551,N,00048.688,W,1,12,1.0,0.0,M,0.0,M,,*78
$GPGSA,A,3,01,02,03,04,05,06,07,08,09,10,11,12,1.0,1.0,1.0*30
$GPRMC,120016.300,A,4149.551,N,00048.688,W,038.9,275.8,150725,000.0,W*62
$GPGGA,120016.400,4149.551,N,00048.690,W,1,12,1.0,0.0,M,0.0,M,,*76
$GPGSA,A,3,01,02,03,04,05,06,07,08,09,10,11,12,1.0,1.0,1.0*30
$GPRMC,120016.400,A,4149.551,N,00048.690,W,038.9,275.8,150725,000.0,W*6C
$GPGGA,120016.500,4149.552,N,00048.691,W,1,12,1.0,0.0,M,0.0,M,,*75
$GPGSA,A,3,01,02,03,04,05,06,07,08,09,10,11,12,1.0,1.0,1.0*30
$GPRMC,120016.500,A,4149.552,N,00048.691,W,038.9,275.8,150725,000.0,W*6F
$GPGGA,120016.600,4149.552,N,00048.693,W,1,12,1.0,0.0,M,0.0,M,,*74
$GPGSA,A,3,01,02,03,04,05,06,07,08,09,10,11,12,1.0,1.0,1.0*30
$GPRMC,120016.600,A,4149.552,N,00048.693,W,038.9,275.8,150725,000.0,W*6E
$GPGGA,120016.700,4149.552,N,00048.694,W,1,12,1.0,0.0,M,0.0,M,,*72
$GPGSA,A,3,01,02,03,04,05,06,07,08,09,10,11,12,1.0,1.0,1.0*30
$GPRMC,120016.700,A,4149.552,N,00048.694,W,038.9,275.8,150725,000.0,W*68
$GPGGA,120016.800,4149.552,N,00048.695,W,1,12,1.0,0.0,M,0.0,M,,*7C
$GPGSA,A,3,01,02,03,04,05,06,07,08,09,10,11,12,1.0,1.0,1.0*30
$GPRMC,120016.800,A,4149.552,N,00048.695,W,038.9,281.0,150725,000.0,W*65
$GPGGA,120016.900,4149.552,N,00048.697,W,1,12,1.0,0.0,M,0.0,M,,*7F
$GPGSA,A,3,01,02,03,04,05,06,07,08,09,10,11,12,1.0,1.0,1.0*30
$GPRMC,120016.900,A,4149.552,N,00048.697,W,038.9,281.0,150725,000.0,W*66
$GPGGA,120017.000,4149.552,N,00048.698,W,1,12,1.0,0.0,M,0.0,M,,*78
$GPGSA,A,3,01,02,03,04,05,06,07,08,09,10,11,12,1.0,1.0,1.0*30
$GPRMC,120017.000,A,4149.552,N,00048.698,W,038.9,292.3,150725,000.0,W*60
$GPGGA,120017.100,4149.553,N,00048.700,W,1,12,1.0,0.0,M,0.0,M,,*78
$GPGSA,A,3,01,02,03,04,05,06,07,08,09,10,11,12,1.0,1.0,1.0*30
$GPRMC,120017.100,A,4149.553,N,00048.700,W,038.9,292.3,150725,000.0,W*60
$GPGGA,120017.200,4149.553,N,00048.701,W,1,12,1.0,0.0,M,0.0,M,,*7A
$GPGSA,A,3,01,02,03,04,05,06,07,08,09,10,11,12,1.0,1.0,1.0*30
$GPRMC,120017.200,A,4149.553,N,00048.701,W,038.9,292.3,150725,000.0,W*62
$GPGGA,120017.300,4149.553,N,00048.702,W,1,12,1.0,0.0,M,0.0,M,,*78
$GPGSA,A,3,01,02,03,04,05,06,07,08,09,10,11,12,1.0,1.0,1.0*30
$GPRMC,120017.300,A,4149.553,N,00048.702,W,038.9,300.4,150725,000.0,W*6D
$GPGGA,120017.400,4149.554,N,00048.704,W,1,12,1.0,0.0,M,0.0,M,,*7E
$GPGSA,A,3,01,02,03,04,05,06,07,08,09,10,11,12,1.0,1.0,1.0*30
$GPRMC,120017.400,A,4149.554,N,00048.704,W,038.9,300.4,150725,000.0,W*6B
$GPGGA,120017.500,4149.555,N,00048.705,W,1,12,1.0,0.0,M,0.0,M,,*7F
$GPGSA,A,3,01,02,03,04,05,06,07,08,09,10,11,12,1.0,1.0,1.0*30
$GPRMC,120017.500,A,4149.555,N,00048.705,W,038.9,322.2,150725,000.0,W*6C
$GPGGA,120017.600,4149.555,N,00048.706,W,1,12,1.0,0.0,M,0.0,M,,*7F
$GPGSA,A,3,01,02,03,04,05,06,07,08,09,10,11,12,1.0,1.0,1.0*30
$GPRMC,120017.600,A,4149.555,N,00048.706,W,038.9,322.2,150725,000.0,W*6C
$GPGGA,120017.700,4149.556,N,00048.707,W,1,12,1.0,0.0,M,0.0,M,,*7C
$GPGSA,A,3,01,02,03,04,05,06,07,08,09,10,11,12,1.0,1.0,1.0*30
$GPRMC,120017.700,A,4149.556,N,00048.707,W,038.9,322.2,150725,000.0,W*6F
$GPGGA,120017.800,4149.557,N,00048.708,W,1,12,1.0,0.0,M,0.0,M,,*7D
$GPGSA,A,3,01,02,03,04,05,06,07,08,09,10,11,12,1.0,1.0,1.0*30
$GPRMC,120017.800,A,4149.557,N,00048.708,W,038.9,322.2,150725,000.0,W*6E
$GPGGA,120017.900,4149.558,N,00048.708,W,1,12,1.0,0.0,M,0.0,M,,*73
$GPGSA,A,3,01,02,03,04,05,06,07,08,09,10,11,12,1.0,1.0,1.0*30
$GPRMC,120017.900,A,4149.558,N,00048.708,W,038.9,322.2,150725,000.0,W*60
$GPGGA,120018.000,4149.559,N,00048.709,W,1,12,1.0,0.0,M,0.0,M,,*75
$GPGSA,A,3,01,02,03,04,05,06,07,08,09,10,11,12,1.0,1.0,1.0*30
$GPRMC,120018.000,A,4149.559,N,00048.709,W,038.9,322.2,150725,000.0,W*66
$GPGGA,120018.100,4149.560,N,00048.710,W,1,12,1.0,0.0,M,0.0,M,,*76
$GPGSA,A,3,01,02,03,04,05,06,07,08,09,10,11,12,1.0,1.0,1.0*30
$GPRMC,120018.100,A,4149.560,N,00048.710,W,038.9,322.2,150725,000.0,W*65
$GPGGA,120018.200,4149.561,N,00048.711,W,1,12,1.0,0.0,M,0.0,M,,*75
$GPGSA,A,3,01,02,03,04,05,06,07,08,09,10,11,12,1.0,1.0,1.0*30
$GPRMC,120018.200,A,4149.561,N,00048.711,W,038.9,322.2,150725,000.0,W*66
$GPGGA,120018.300,4149.561,N,00048.712,W,1,12,1.0,0.0,M,0.0,M,,*77
$GPGSA,A,3,01,02,03,04,05,06,07,08,09,10,11,12,1.0,1.0,1.0*30
$GPRMC,120018.300,A,4149.561,N,00048.712,W,038.9,322.2,150725,000.0,W*64
$GPGGA,120018.400,4149.562,N,00048.713,W,1,12,1.0,0.0,M,0.0,M,,*72
$GPGSA,A,3,01,02,03,04,05,06,07,08,09,10,11,12,1.0,1.0,1.0*30
$GPRMC,120018.400,A,4149.562,N,00048.713,W,038.9,322.2,150725,000.0,W*61
$GPGGA,120018.500,4149.563,N,00048.714,W,1,12,1.0,0.0,M,0.0,M,,*75
$GPGSA,A,3,01,02,03,04,05,06,07,08,09,10,11,12,1.0,1.0,1.0*30
$GPRMC,120018.500,A,4149.563,N,00048.714,W,038.9,322.2,150725,000.0,W*66
$GPGGA,120018.600,4149.564,N,00048.715,W,1,12,1.0,0.0,M,0.0,M,,*70
$GPGSA,A,3,01,02,03,04,05,06,07,08,09,10,11,12,1.0,1.0,1.0*30
$GPRMC,120018.600,A,4149.564,N,00048.715,W,038.9,323.2,150725,000.0,W*62
$GPGGA,120018.700,4149.565,N,00048.715,W,1,12,1.0,0.0,M,0.0,M,,*70
$GPGSA,A,3,01,02,03,04,05,06,07,08,09,10,11,12,1.0,1.0,1.0*30
$GPRMC,120018.700,A,4149.565,N,00048.715,W,038.9,323.2,150725,000.0,W*62
$GPGGA,120018.800,4149.566,N,00048.716,W,1,12,1.0,0.0,M,0.0,M,,*7F
$GPGSA,A,3,01,02,03,04,05,06,07,08,09,10,11,12,1.0,1.0,1.0*30
$GPRMC,120018.800,A,4149.566,N,00048.716,W,038.9,323.2,150725,000.0,W*6D
$GPGGA,120018.900,4149.567,N,00048.717,W,1,12,1.0,0.0,M,0.0,M,,*7E
$GPGSA,A,3,01,02,03,04,05,06,07,08,09,10,11,12,1.0,1.0,1.0*30
$GPRMC,120018.900,A,4149.567,N,00048.717,W,038.9,323.2,150725,000.0,W*6C
$GPGGA,120019.000,4149.567,N,00048.718,W,1,12,1.0,0.0,M,0.0,M,,*79
$GPGSA,A,3,01,02,03,04,05,06,07,08,09,10,11,12,1.0,1.0,1.0*30
$GPRMC,120019.000,A,4149.567,N,00048.718,W,038.9,323.2,150725,000.0,W*6B
$GPGGA,120019.100,4149.568,N,00048.719,W,1,12,1.0,0.0,M,0.0,M,,*76
$GPGSA,A,3,01,02,03,04,05,06,07,08,09,10,11,12,1.0,1.0,1.0*30
$GPRMC,120019.100,A,4149.568,N,00048.719,W,038.9,323.2,150725,000.0,W*64
$GPGGA,120019.200,4149.569,N,00048.720,W,1,12,1.0,0.0,M,0.0,M,,*7E
$GPGSA,A,3,01,02,03,04,05,06,07,08,09,10,11,12,1.0,1.0,1.0*30
$GPRMC,120019.200,A,4149.569,N,00048.720,W,038.9,323.2,150725,000.0,W*6C
$GPGGA,120019.300,4149.570,N,00048.721,W,1,12,1.0,0.0,M,0.0,M,,*76
$GPGSA,A,3,01,02,03,04,05,06,07,08,09,10,11,12,1.0,1.0,1.0*30
$GPRMC,120019.300,A,4149.570,N,00048.721,W,038.9,323.2,150725,000.0,W*64
$GPGGA,120019.400,4149.571,N,00048.722,W,1,12,1.0,0.0,M,0.0,M,,*73
$GPGSA,A,3,01,02,03,04,05,06,07,08,09,10,11,12,1.0,1.0,1.0*30
$GPRMC,120019.400,A,4149.571,N,00048.722,W,038.9,323.2,150725,000.0,W*61
$GPGGA,120019.500,4149.572,N,00048.722,W,1,12,1.0,0.0,M,0.0,M,,*71
$GPGSA,A,3,01,02,03,04,05,06,07,08,09,10,11,12,1.0,1.0,1.0*30
$GPRMC,120019.500,A,4149.572,N,00048.722,W,038.9,316.0,150725,000.0,W*67
$GPGGA,120019.600,4149.572,N,00048.723,W,1,12,1.0,0.0,M,0.0,M,,*73
$GPGSA,A,3,01,02,03,04,05,06,07,08,09,10,11,12,1.0,1.0,1.0*30
$GPRMC,120019.600,A,4149.572,N,00048.723,W,038.9,316.0,150725,000.0,W*65
$GPGGA,120019.700,4149.573,N,00048.724,W,1,12,1.0,0.0,M,0.0,M,,*74
$GPGSA,A,3,01,02,03,04,05,06,07,08,09,10,11,12,1.0,1.0,1.0*30
$GPRMC,120019.700,A,4149.573,N,00048.724,W,038.9,301.0,150725,000.0,W*64
$GPGGA,120019.800,4149.574,N,00048.726,W,1,12,1.0,0.0,M,0.0,M,,*7E
$GPGSA,A,3,01,02,03,04,05,06,07,08,09,10,11,12,1.0,1.0,1.0*30
$GPRMC,120019.800,A,4149.574,N,00048.726,W,038.9,301.0,150725,000.0,W*6E
$GPGGA,120019.900,4149.574,N,00048.727,W,1,12,1.0,0.0,M,0.0,M,,*7E
$GPGSA,A,3,01,02,03,04,05,06,07,08,09,10,11,12,1.0,1.0,1.0*30
$GPRMC,120019.900,A,4149.574,N,00048.727,W,038.9,290.4,150725,000.0,W*63
$GPGGA,120020.000,4149.575,N,00048.728,W,1,12,1.0,0.0,M,0.0,M,,*73
$GPGSA,A,3,01,02,03,04,05,06,07,08,09,10,11,12,1.0,1.0,1.0*30
$GPRMC,120020.000,A,4149.575,N,00048.728,W,038.9,290.4,150725,000.0,W*6E
$GPGGA,120020.100,4149.575,N,00048.730,W,1,12,1.0,0.0,M,0.0,M,,*7B
$GPGSA,A,3,01,02,03,04,05,06,07,08,09,10,11,12,1.0,1.0,1.0*30
$GPRMC,120020.100,A,4149.575,N,00048.730,W,038.9,290.4,150725,000.0,W*66
$GPGGA,120020.200,4149.576,N,00048.731,W,1,12,1.0,0.0,M,0.0,M,,*7A
$GPGSA,A,3,01,02,03,04,05,06,07,08,09,10,11,12,1.0,1.0,1.0*30
$GPRMC,120020.200,A,4149.576,N,00048.731,W,038.9,282.4,150725,000.0,W*64
$GPGGA,120020.300,4149.576,N,00048.732,W,1,12,1.0,0.0,M,0.0,M,,*78
$GPGSA,A,3,01,02,03,04,05,06,07,08,09,10,11,12,1.0,1.0,1.0*30
$GPRMC,120020.300,A,4149.576,N,00048.732,W,038.9,282.4,150725,000.0,W*66
$GPGGA,120020.400,4149.576,N,00048.734,W,1,12,1.0,0.0,M,0.0,M,,*79
$GPGSA,A,3,01,02,03,04,05,06,07,08,09,10,11,12,1.0,1.0,1.0*30
$GPRMC,120020.400,A,4149.576,N,00048.734,W,038.9,282.4,150725,000.0,W*67
$GPGGA,120020.500,4149.576,N,00048.735,W,1,12,1.0,0.0,M,0.0,M,,*79
$GPGSA,A,3,01,02,03,04,05,06,07,08,09,10,11,12,1.0,1.0,1.0*30
$GPRMC,120020.500,A,4149.576,N,00048.735,W,038.9,274.7,150725,000.0,W*6D
$GPGGA,120020.600,4149.576,N,00048.737,W,1,12,1.0,0.0,M,0.0,M,,*78
$GPGSA,A,3,01,02,03,04,05,06,07,08,09,10,11,12,1.0,1.0,1.0*30
$GPRMC,120020.600,A,4149.576,N,00048.737,W,038.9,274.7,150725,000.0,W*6C
$GPGGA,120020.700,4149.576,N,00048.738,W,1,12,1.0,0.0,M,0.0,M,,*76
$GPGSA,A,3,01,02,03,04,05,06,07,08,09,10,11,12,1.0,1.0,1.0*30
$GPRMC,120020.700,A,4149.576,N,00048.738,W,038.9,270.0,150725,000.0,W*61
$GPGGA,120020.800,4149.576,N,00048.740,W,1,12,1.0,0.0,M,0.0,M,,*76
$GPGSA,A,3,01,02,03,04,05,06,07,08,09,10,11,12,1.0,1.0,1.0*30
$GPRMC,120020.800,A,4149.576,N,00048.740,W,038.9,270.0,150725,000.0,W*61
$GPGGA,120020.900,4149.576,N,00048.741,W,1,12,1.0,0.0,M,0.0,M,,*76
$GPGSA,A,3,01,02,03,04,05,06,07,08,09,10,11,12,1.0,1.0,1.0*30
$GPRMC,120020.900,A,4149.576,N,00048.741,W,038.9,265.6,150725,000.0,W*63
$GPGGA,120021.000,4149.576,N,00048.742,W,1,12,1.0,0.0,M,0.0,M,,*7D
$GPGSA,A,3,01,02,03,04,05,06,07,08,09,10,11,12,1.0,1.0,1.0*30
$GPRMC,120021.000,A,4149.576,N,00048.742,W,038.9,259.6,150725,000.0,W*67
$GPGGA,120021.100,4149.576,N,00048.744,W,1,12,1.0,0.0,M,0.0,M,,*7A
$GPGSA,A,3,01,02,03,04,05,06,07,08,09,10,11,12,1.0,1.0,1.0*30
$GPRMC,120021.100,A,4149.576,N,00048.744,W,038.9,259.6,150725,000.0,W*60
$GPGGA,120021.200,4149.576,N,00048.745,W,1,12,1.0,0.0,M,0.0,M,,*78
$GPGSA,A,3,01,02,03,04,05,06,07,08,09,10,11,12,1.0,1.0,1.0*30
$GPRMC,120021.200,A,4149.576,N,00048.745,W,038.9,259.6,150725,000.0,W*62
$GPGGA,120021.300,4149.576,N,00048.747,W,1,12,1.0,0.0,M,0.0,M,,*7B
$GPGSA,A,3,01,02,03,04,05,06,07,08,09,10,11,12,1.0,1.0,1.0*30
$GPRMC,120021.300,A,4149.576,N,00048.747,W,038.9,259.6,150725,000.0,W*61
$GPGGA,120021.400,4149.576,N,00048.748,W,1,12,1.0,0.0,M,0.0,M,,*73
$GPGSA,A,3,01,02,03,04,05,06,07,08,09,10,11,12,1.0,1.0,1.0*30
$GPRMC,120021.400,A,4149.576,N,00048.748,W,038.9,259.6,150725,000.0,W*69
$GPGGA,120021.500,4149.575,N,00048.750,W,1,12,1.0,0.0,M,0.0,M,,*78
$GPGSA,A,3,01,02,03,04,05,06,07,08,09,10,11,12,1.0,1.0,1.0*30
$GPRMC,120021.500,A,4149.575,N,00048.750,W,038.9,259.6,150725,000.0,W*62
$GPGGA,120021.600,4149.575,N,00048.751,W,1,12,1.0,0.0,M,0.0,M,,*7A
$GPGSA,A,3,01,02,03,04,05,06,07,08,09,10,11,12,1.0,1.0,1.0*30
$GPRMC,120021.600,A,4149.575,N,00048.751,W,038.9,259.6,150725,000.0,W*60
$GPGGA,120021.700,4149.575,N,00048.752,W,1,12,1.0,0.0,M,0.0,M,,*78
$GPGSA,A,3,01,02,03,04,05,06,07,08,09,10,11,12,1.0,1.0,1.0*30
$GPRMC,120021.700,A,4149.575,N,00048.752,W,038.9,259.6,150725,000.0,W*62
$GPGGA,120021.800,4149.575,N,00048.754,W,1,12,1.0,0.0,M,0.0,M,,*71
$GPGSA,A,3,01,02,03,04,05,06,07,08,09,10,11,12,1.0,1.0,1.0*30
$GPRMC,120021.800,A,4149.575,N,00048.754,W,038.9,259.6,150725,000.0,W*6B
$GPGGA,120021.900,4149.575,N,00048.755,W,1,12,1.0,0.0,M,0.0,M,,*71
$GPGSA,A,3,01,02,03,04,05,06,07,08,09,10,11,12,1.0,1.0,1.0*30
$GPRMC,120021.900,A,4149.575,N,00048.755,W,038.9,259.6,150725,000.0,W*6B
$GPGGA,120022.000,4149.574,N,00048.757,W,1,12,1.0,0.0,M,0.0,M,,*78
$GPGSA,A,3,01,02,03,04,05,06,07,08,09,10,11,12,1.0,1.0,1.0*30
$GPRMC,120022.000,A,4149.574,N,00048.757,W,038.9,259.6,150725,000.0,W*62
$GPGGA,120022.100,4149.574,N,00048.758,W,1,12,1.0,0.0,M,0.0,M,,*76
$GPGSA,A,3,01,02,03,04,05,06,07,08,09,10,11,12,1.0,1.0,1.0*30
$GPRMC,120022.100,A,4149.574,N,00048.758,W,038.9,259.6,150725,000.0,W*6C
$GPGGA,120022.200,4149.574,N,00048.760,W,1,12,1.0,0.0,M,0.0,M,,*7E
$GPGSA,A,3,01,02,03,04,05,06,07,08,09,10,11,12,1.0,1.0,1.0*30
$GPRMC,120022.200,A,4149.574,N,00048.760,W,038.9,259.6,150725,000.0,W*64
$GPGGA,120022.300,4149.574,N,00048.761,W,1,12,1.0,0.0,M,0.0,M,,*7E
$GPGSA,A,3,01,02,03,04,05,06,07,08,09,10,11,12,1.0,1.0,1.0*30
$GPRMC,120022.300,A,4149.574,N,00048.761,W,038.9,259.6,150725,000.0,W*64
$GPGGA,120022.400,4149.574,N,00048.762,W,1,12,1.0,0.0,M,0.0,M,,*7A
$GPGSA,A,3,01,02,03,04,05,06,07,08,09,10,11,12,1.0,1.0,1.0*30
$GPRMC,120022.400,A,4149.574,N,00048.762,W,038.9,259.6,150725,000.0,W*60
$GPGGA,120022.500,4149.573,N,00048.764,W,1,12,1.0,0.0,M,0.0,M,,*7A
$GPGSA,A,3,01,02,03,04,05,06,07,08,09,10,11,12,1.0,1.0,1.0*30
$GPRMC,120022.500,A,4149.573,N,00048.764,W,038.9,259.6,150725,000.0,W*60
$GPGGA,120022.600,4149.573,N,00048.765,W,1,12,1.0,0.0,M,0.0,M,,*78
$GPGSA,A,3,01,02,03,04,05,06,07,08,09,10,11,12,1.0,1.0,1.0*30
$GPRMC,120022.600,A,4149.573,N,00048.765,W,038.9,259.6,150725,000.0,W*62
$GPGGA,120022.700,4149.573,N,00048.767,W,1,12,1.0,0.0,M,0.0,M,,*7B
$GPGSA,A,3,01,02,03,04,05,06,07,08,09,10,11,12,1.0,1.0,1.0*30
$GPRMC,120022.700,A,4149.573,N,00048.767,W,038.9,259.6,150725,000.0,W*61
$GPGGA,120022.800,4149.573,N,00048.768,W,1,12,1.0,0.0,M,0.0,M,,*7B
$GPGSA,A,3,01,02,03,04,05,06,07,08,09,10,11,12,1.0,1.0,1.0*30
$GPRMC,120022.800,A,4149.573,N,00048.768,W,038.9,259.6,150725,000.0,W*61
$GPGGA,120022.900,4149.573,N,00048.770,W,1,12,1.0,0.0,M,0.0,M,,*73
$GPGSA,A,3,01,02,03,04,05,06,07,08,09,10,11,12,1.0,1.0,1.0*30
$GPRMC,120022.900,A,4149.573,N,00048.770,W,038.9,259.6,150725,000.0,W*69
$GPGGA,120023.000,4149.572,N,00048.771,W,1,12,1.0,0.0,M,0.0,M,,*7B
$GPGSA,A,3,01,02,03,04,05,06,07,08,09,10,11,12,1.0,1.0,1.0*30
$GPRMC,120023.000,A,4149.572,N,00048.771,W,038.9,259.6,150725,000.0,W*61
$GPGGA,120023.100,4149.572,N,00048.772,W,1,12,1.0,0.0,M,0.0,M,,*79
$GPGSA,A,3,01,02,03,04,05,06,07,08,09,10,11,12,1.0,1.0,1.0*30
$GPRMC,120023.100,A,4149.572,N,00048.772,W,038.9,259.6,150725,000.0,W*63
$GPGGA,120023.200,4149.572,N,00048.774,W,1,12,1.0,0.0,M,0.0,M,,*7C
$GPGSA,A,3,01,02,03,04,05,06,07,08,09,10,11,12,1.0,1.0,1.0*30
$GPRMC,120023.200,A,4149.572,N,00048.774,W,038.9,259.6,150725,000.0,W*66
$GPGGA,120023.300,4149.572,N,00048.775,W,1,12,1.0,0.0,M,0.0,M,,*7C
$GPGSA,A,3,01,02,03,04,05,06,07,08,09,10,11,12,1.0,1.0,1.0*30
$GPRMC,120023.300,A,4149.572,N,00048.775,W,038.9,259.6,150725,000.0,W*66
$GPGGA,120023.400,4149.572,N,00048.777,W,1,12,1.0,0.0,M,0.0,M,,*79
$GPGSA,A,3,01,02,03,04,05,06,07,08,09,10,11,12,1.0,1.0,1.0*30
$GPRMC,120023.400,A,4149.572,N,00048.777,W,038.9,259.6,150725,000.0,W*63
$GPGGA,120023.500,4149.571,N,00048.778,W,1,12,1.0,0.0,M,0.0,M,,*74
$GPGSA,A,3,01,02,03,04,05,06,07,08,09,10,11,12,1.0,1.0,1.0*30
$GPRMC,120023.500,A,4149.571,N,00048.778,W,038.9,259.6,150725,000.0,W*6E
$GPGGA,120023.600,4149.571,N,00048.779,W,1,12,1.0,0.0,M,0.0,M,,*76
$GPGSA,A,3,01,02,03,04,05,06,07,08,09,10,11,12,1.0,1.0,1.0*30
$GPRMC,120023.600,A,4149.571,N,00048.779,W,038.9,259.6,150725,000.0,W*6C
$GPGGA,120023.700,4149.571,N,00048.781,W,1,12,1.0,0.0,M,0.0,M,,*70
$GPGSA,A,3,01,02,03,04,05,06,07,08,09,10,11,12,1.0,1.0,1.0*30
$GPRMC,120023.700,A,4149.571,N,00048.781,W,038.9,259.6,150725,000.0,W*6A
$GPGGA,120023.800,4149.571,N,00048.782,W,1,12,1.0,0.0,M,0.0,M,,*7C
$GPGSA,A,3,01,02,03,04,05,06,07,08,09,10,11,12,1.0,1.0,1.0*30
$GPRMC,120023.800,A,4149.571,N,00048.782,W,038.9,259.6,150725,000.0,W*66
$GPGGA,120023.900,4149.571,N,00048.784,W,1,12,1.0,0.0,M,0.0,M,,*7B
$GPGSA,A,3,01,02,03,04,05,06,07,08,09,10,11,12,1.0,1.0,1.0*30
$GPRMC,120023.900,A,4149.571,N,00048.784,W,038.9,260.0,150725,000.0,W*6D
$GPGGA,120024.000,4149.570,N,00048.785,W,1,12,1.0,0.0,M,0.0,M,,*75
$GPGSA,A,3,01,02,03,04,05,06,07,08,09,10,11,12,1.0,1.0,1.0*30
$GPRMC,120024.000,A,4149.570,N,00048.785,W,038.9,260.0,150725,000.0,W*63
$GPGGA,120024.100,4149.570,N,00048.787,W,1,12,1.0,0.0,M,0.0,M,,*76
$GPGSA,A,3,01,02,03,04,05,06,07,08,09,10,11,12,1.0,1.0,1.0*30
$GPRMC,120024.100,A,4149.570,N,00048.787,W,038.9,260.0,150725,000.0,W*60
$GPGGA,120024.200,4149.570,N,00048.788,W,1,12,1.0,0.0,M,0.0,M,,*7A
$GPGSA,A,3,01,02,03,04,05,06,07,08,09,10,11,12,1.0,1.0,1.0*30
$GPRMC,120024.200,A,4149.570,N,00048.788,W,038.9,260.0,150725,000.0,W*6C
$GPGGA,120024.300,4149.570,N,00048.789,W,1,12,1.0,0.0,M,0.0,M,,*7A
$GPGSA,A,3,01,02,03,04,05,06,07,08,09,10,11,12,1.0,1.0,1.0*30
$GPRMC,120024.300,A,4149.570,N,00048.789,W,038.9,260.0,150725,000.0,W*6C
$GPGGA,120024.400,4149.570,N,00048.791,W,1,12,1.0,0.0,M,0.0,M,,*74
$GPGSA,A,3,01,02,03,04,05,06,07,08,09,10,11,12,1.0,1.0,1.0*30
$GPRMC,120024.400,A,4149.570,N,00048.791,W,038.9,260.0,150725,000.0,W*62
$GPGGA,120024.500,4149.570,N,00048.792,W,1,12,1.0,0.0,M,0.0,M,,*76
$GPGSA,A,3,01,02,03,04,05,06,07,08,09,10,11,12,1.0,1.0,1.0*30
$GPRMC,120024.500,A,4149.570,N,00048.792,W,038.9,260.0,150725,000.0,W*60
$GPGGA,120024.600,4149.569,N,00048.794,W,1,12,1.0,0.0,M,0.0,M,,*7B
$GPGSA,A,3,01,02,03,04,05,06,07,08,09,10,11,12,1.0,1.0,1.0*30
$GPRMC,120024.600,A,4149.569,N,00048.794,W,038.9,260.0,150725,000.0,W*6D
$GPGGA,120024.700,4149.569,N,00048.795,W,1,12,1.0,0.0,M,0.0,M,,*7B
$GPGSA,A,3,01,02,03,04,05,06,07,08,09,10,11,12,1.0,1.0,1.0*30
$GPRMC,120024.700,A,4149.569,N,00048.795,W,038.9,260.0,150725,000.0,W*6D
$GPGGA,120024.800,4149.569,N,00048.797,W,1,12,1.0,0.0,M,0.0,M,,*76
$GPGSA,A,3,01,02,03,04,05,06,07,08,09,10,11,12,1.0,1.0,1.0*30
$GPRMC,120024.800,A,4149.569,N,00048.797,W,038.9,280.8,150725,000.0,W*66
$GPGGA,120024.900,4149.569,N,00048.798,W,1,12,1.0,0.0,M,0.0,M,,*78
$GPGSA,A,3,01,02,03,04,05,06,07,08,09,10,11,12,1.0,1.0,1.0*30
$GPRMC,120024.900,A,4149.569,N,00048.798,W,038.9,305.7,150725,000.0,W*6B
$GPGGA,120025.000,4149.570,N,00048.799,W,1,12,1.0,0.0,M,0.0,M,,*79
$GPGSA,A,3,01,02,03,04,05,06,07,08,09,10,11,12,1.0,1.0,1.0*30
$GPRMC,120025.000,A,4149.570,N,00048.799,W,038.9,310.6,150725,000.0,W*6F
$GPGGA,120025.100,4149.570,N,00048.800,W,1,12,1.0,0.0,M,0.0,M,,*77
$GPGSA,A,3,01,02,03,04,05,06,07,08,09,10,11,12,1.0,1.0,1.0*30
$GPRMC,120025.100,A,4149.570,N,00048.800,W,038.9,315.8,150725,000.0,W*6A
$GPGGA,120025.200,4149.571,N,00048.801,W,1,12,1.0,0.0,M,0.0,M,,*74
$GPGSA,A,3,01,02,03,04,05,06,07,08,09,10,11,12,1.0,1.0,1.0*30
$GPRMC,120025.200,A,4149.571,N,00048.801,W,038.9,330.4,150725,000.0,W*62
$GPGGA,120025.300,4149.572,N,00048.802,W,1,12,1.0,0.0,M,0.0,M,,*75
$GPGSA,A,3,01,02,03,04,05,06,07,08,09,10,11,12,1.0,1.0,1.0*30
$GPRMC,120025.300,A,4149.572,N,00048.802,W,038.9,340.1,150725,000.0,W*61
$GPGGA,120025.400,4149.573,N,00048.803,W,1,12,1.0,0.0,M,0.0,M,,*72
$GPGSA,A,3,01,02,03,04,05,06,07,08,09,10,11,12,1.0,1.0,1.0*30
$GPRMC,120025.400,A,4149.573,N,00048.803,W,038.9,352.3,150725,000.0,W*67
$GPGGA,120025.500,4149.574,N,00048.803,W,1,12,1.0,0.0,M,0.0,M,,*74
$GPGSA,A,3,01,02,03,04,05,06,07,08,09,10,11,12,1.0,1.0,1.0*30
$GPRMC,120025.500,A,4149.574,N,00048.803,W,038.9,354.2,150725,000.0,W*66
$GPGGA,120025.600,4149.575,N,00048.803,W,1,12,1.0,0.0,M,0.0,M,,*76
$GPGSA,A,3,01,02,03,04,05,06,07,08,09,10,11,12,1.0,1.0,1.0*30
$GPRMC,120025.600,A,4149.575,N,00048.803,W,038.9,005.0,150725,000.0,W*61
$GPGGA,120025.700,4149.576,N,00048.803,W,1,12,1.0,0.0,M,0.0,M,,*74
$GPGSA,A,3,01,02,03,04,05,06,07,08,09,10,11,12,1.0,1.0,1.0*30
$GPRMC,120025.700,A,4149.576,N,00048.803,W,038.9,023.0,150725,000.0,W*67
$GPGGA,120025.800,4149.577,N,00048.802,W,1,12,1.0,0.0,M,0.0,M,,*7B
$GPGSA,A,3,01,02,03,04,05,06,07,08,09,10,11,12,1.0,1.0,1.0*30
$GPRMC,120025.800,A,4149.577,N,00048.802,W,038.9,023.0,150725,000.0,W*68
$GPGGA,120025.900,4149.578,N,00048.802,W,1,12,1.0,0.0,M,0.0,M,,*75
$GPGSA,A,3,01,02,03,04,05,06,07,08,09,10,11,12,1.0,1.0,1.0*30
$GPRMC,120025.900,A,4149.578,N,00048.802,W,038.9,048.7,150725,000.0,W*6C
$GPGGA,120026.000,4149.579,N,00048.801,W,1,12,1.0,0.0,M,0.0,M,,*7D
$GPGSA,A,3,01,02,03,04,05,06,07,08,09,10,11,12,1.0,1.0,1.0*30
$GPRMC,120026.000,A,4149.579,N,00048.801,W,038.9,056.6,150725,000.0,W*6A
$GPGGA,120026.100,4149.580,N,00048.799,W,1,12,1.0,0.0,M,0.0,M,,*74
$GPGSA,A,3,01,02,03,04,05,06,07,08,09,10,11,12,1.0,1.0,1.0*30
$GPRMC,120026.100,A,4149.580,N,00048.799,W,038.9,057.6,150725,000.0,W*62
$GPGGA,120026.200,4149.580,N,00048.798,W,1,12,1.0,0.0,M,0.0,M,,*76
$GPGSA,A,3,01,02,03,04,05,06,07,08,09,10,11,12,1.0,1.0,1.0*30
$GPRMC,120026.200,A,4149.580,N,00048.798,W,038.9,057.6,150725,000.0,W*60
$GPGGA,120026.300,4149.581,N,00048.797,W,1,12,1.0,0.0,M,0.0,M,,*79
$GPGSA,A,3,01,02,03,04,05,06,07,08,09,10,11,12,1.0,1.0,1.0*30
$GPRMC,120026.300,A,4149.581,N,00048.797,W,038.9,069.9,150725,000.0,W*6D
$GPGGA,120026.400,4149.581,N,00048.795,W,1,12,1.0,0.0,M,0.0,M,,*7C
$GPGSA,A,3,01,02,03,04,05,06,07,08,09,10,11,12,1.0,1.0,1.0*30
$GPRMC,120026.400,A,4149.581,N,00048.795,W,038.9,073.7,150725,000.0,W*6D
$GPGGA,120026.500,4149.582,N,00048.794,W,1,12,1.0,0.0,M,0.0,M,,*7F
$GPGSA,A,3,01,02,03,04,05,06,07,08,09,10,11,12,1.0,1.0,1.0*30
$GPRMC,120026.500,A,4149.582,N,00048.794,W,038.9,073.7,150725,000.0,W*6E
$GPGGA,120026.600,4149.582,N,00048.793,W,1,12,1.0,0.0,M,0.0,M,,*7B
$GPGSA,A,3,01,02,03,04,05,06,07,08,09,10,11,12,1.0,1.0,1.0*30
$GPRMC,120026.600,A,4149.582,N,00048.793,W,038.9,073.7,150725,000.0,W*6A
$GPGGA,120026.700,4149.582,N,00048.791,W,1,12,1.0,0.0,M,0.0,M,,*78
$GPGSA,A,3,01,02,03,04,05,06,07,08,09,10,11,12,1.0,1.0,1.0*30
$GPRMC,120026.700,A,4149.582,N,00048.791,W,038.9,073.7,150725,000.0,W*69
$GPGGA,120026.800,4149.582,N,00048.790,W,1,12,1.0,0.0,M,0.0,M,,*76
$GPGSA,A,3,01,02,03,04,05,06,07,08,09,10,11,12,1.0,1.0,1.0*30
$GPRMC,120026.800,A,4149.582,N,00048.790,W,038.9,073.7,150725,000.0,W*67
$GPGGA,120026.900,4149.583,N,00048.789,W,1,12,1.0,0.0,M,0.0,M,,*7E
$GPGSA,A,3,01,02,03,04,05,06,07,08,09,10,11,12,1.0,1.0,1.0*30
$GPRMC,120026.900,A,4149.583,N,00048.789,W,038.9,073.7,150725,000.0,W*6F
$GPGGA,120027.000,4149.583,N,00048.787,W,1,12,1.0,0.0,M,0.0,M,,*78
$GPGSA,A,3,01,02,03,04,05,06,07,08,09,10,11,12,1.0,1.0,1.0*30
$GPRMC,120027.000,A,4149.583,N,00048.787,W,038.9,073.7,150725,000.0,W*69
$GPGGA,120027.100,4149.583,N,00048.786,W,1,12,1.0,0.0,M,0.0,M,,*78
$GPGSA,A,3,01,02,03,04,05,06,07,08,09,10,11,12,1.0,1.0,1.0*30
$GPRMC,120027.100,A,4149.583,N,00048.786,W,038.9,073.7,150725,000.0,W*69
$GPGGA,120027.200,4149.584,N,00048.784,W,1,12,1.0,0.0,M,0.0,M,,*7E
$GPGSA,A,3,01,02,03,04,05,06,07,08,09,10,11,12,1.0,1.0,1.0*30
$GPRMC,120027.200,A,4149.584,N,00048.784,W,038.9,073.7,150725,000.0,W*6F
$GPGGA,120027.300,4149.584,N,00048.783,W,1,12,1.0,0.0,M,0.0,M,,*78
$GPGSA,A,3,01,02,03,04,05,06,07,08,09,10,11,12,1.0,1.0,1.0*30
$GPRMC,120027.300,A,4149.584,N,00048.783,W,038.9,073.7,150725,000.0,W*69
$GPGGA,120027.400,4149.584,N,00048.782,W,1,12,1.0,0.0,M,0.0,M,,*7E
$GPGSA,A,3,01,02,03,04,05,06,07,08,09,10,11,12,1.0,1.0,1.0*30
$GPRMC,120027.400,A,4149.584,N,00048.782,W,038.9,073.7,150725,000.0,W*6F
$GPGGA,120027.500,4149.585,N,00048.780,W,1,12,1.0,0.0,M,0.0,M,,*7C
$GPGSA,A,3,01,02,03,04,05,06,07,08,09,10,11,12,1.0,1.0,1.0*30
$GPRMC,120027.500,A,4149.585,N,00048.780,W,038.9,073.7,150725,000.0,W*6D
$GPGGA,120027.600,4149.585,N,00048.779,W,1,12,1.0,0.0,M,0.0,M,,*79
$GPGSA,A,3,01,02,03,04,05,06,07,08,09,10,11,12,1.0,1.0,1.0*30
$GPRMC,120027.600,A,4149.585,N,00048.779,W,038.9,073.7,150725,000.0,W*68
$GPGGA,120027.700,4149.585,N,00048.777,W,1,12,1.0,0.0,M,0.0,M,,*76
$GPGSA,A,3,01,02,03,04,05,06,07,08,09,10,11,12,1.0,1.0,1.0*30
$GPRMC,120027.700,A,4149.585,N,00048.777,W,038.9,073.7,150725,000.0,W*67
$GPGGA,120027.800,4149.585,N,00048.776,W,1,12,1.0,0.0,M,0.0,M,,*78
$GPGSA,A,3,01,02,03,04,05,06,07,08,09,10,11,12,1.0,1.0,1.0*30
$GPRMC,120027.800,A,4149.585,N,00048.776,W,038.9,073.7,150725,000.0,W*69
$GPGGA,120027.900,4149.586,N,00048.775,W,1,12,1.0,0.0,M,0.0,M,,*79
$GPGSA,A,3,01,02,03,04,05,06,07,08,09,10,11,12,1.0,1.0,1.0*30
$GPRMC,120027.900,A,4149.586,N,00048.775,W,038.9,073.7,150725,000.0,W*68
$GPGGA,120028.000,4149.586,N,00048.773,W,1,12,1.0,0.0,M,0.0,M,,*79
$GPGSA,A,3,01,02,03,04,05,06,07,08,09,10,11,12,1.0,1.0,1.0*30
$GPRMC,120028.000,A,4149.586,N,00048.773,W,038.9,073.7,150725,000.0,W*68
$GPGGA,120028.100,4149.586,N,00048.772,W,1,12,1.0,0.0,M,0.0,M,,*79
$GPGSA,A,3,01,02,03,04,05,06,07,08,09,10,11,12,1.0,1.0,1.0*30
$GPRMC,120028.100,A,4149.586,N,00048.772,W,038.9,073.7,150725,000.0,W*68
$GPGGA,120028.200,4149.587,N,00048.770,W,1,12,1.0,0.0,M,0.0,M,,*79
$GPGSA,A,3,01,02,03,04,05,06,07,08,09,10,11,12,1.0,1.0,1.0*30
$GPRMC,120028.200,A,4149.587,N,00048.770,W,038.9,073.7,150725,000.0,W*68
$GPGGA,120028.300,4149.587,N,00048.769,W,1,12,1.0,0.0,M,0.0,M,,*70
$GPGSA,A,3,01,02,03,04,05,06,07,08,09,10,11,12,1.0,1.0,1.0*30
$GPRMC,120028.300,A,4149.587,N,00048.769,W,038.9,073.7,150725,000.0,W*61
$GPGGA,120028.400,4149.587,N,00048.768,W,1,12,1.0,0.0,M,0.0,M,,*76
$GPGSA,A,3,01,02,03,04,05,06,07,08,09,10,11,12,1.0,1.0,1.0*30
$GPRMC,120028.400,A,4149.587,N,00048.768,W,038.9,073.7,150725,000.0,W*67
$GPGGA,120028.500,4149.588,N,00048.766,W,1,12,1.0,0.0,M,0.0,M,,*76
$GPGSA,A,3,01,02,03,04,05,06,07,08,09,10,11,12,1.0,1.0,1.0*30
$GPRMC,120028.500,A,4149.588,N,00048.766,W,038.9,073.7,150725,000.0,W*67
$GPGGA,120028.600,4149.588,N,00048.765,W,1,12,1.0,0.0,M,0.0,M,,*76
$GPGSA,A,3,01,02,03,04,05,06,07,08,09,10,11,12,1.0,1.0,1.0*30
$GPRMC,120028.600,A,4149.588,N,00048.765,W,038.9,073.7,150725,000.0,W*67
$GPGGA,120028.700,4149.588,N,00048.764,W,1,12,1.0,0.0,M,0.0,M,,*76
$GPGSA,A,3,01,02,03,04,05,06,07,08,09,10,11,12,1.0,1.0,1.0*30
$GPRMC,120028.700,A,4149.588,N,00048.764,W,038.9,073.7,150725,000.0,W*67
$GPGGA,120028.800,4149.589,N,00048.762,W,1,12,1.0,0.0,M,0.0,M,,*7E
$GPGSA,A,3,01,02,03,04,05,06,07,08,09,10,11,12,1.0,1.0,1.0*30
$GPRMC,120028.800,A,4149.589,N,00048.762,W,038.9,073.7,150725,000.0,W*6F
$GPGGA,120028.900,4149.589,N,00048.761,W,1,12,1.0,0.0,M,0.0,M,,*7C
$GPGSA,A,3,01,02,03,04,05,06,07,08,09,10,11,12,1.0,1.0,1.0*30
$GPRMC,120028.900,A,4149.589,N,00048.761,W,038.9,073.7,150725,000.0,W*6D
$GPGGA,120029.000,4149.589,N,00048.759,W,1,12,1.0,0.0,M,0.0,M,,*7F
$GPGSA,A,3,01,02,03,04,05,06,07,08,09,10,11,12,1.0,1.0,1.0*30
$GPRMC,120029.000,A,4149.589,N,00048.759,W,038.9,073.7,150725,000.0,W*6E
$GPGGA,120029.100,4149.589,N,00048.758,W,1,12,1.0,0.0,M,0.0,M,,*7F
$GPGSA,A,3,01,02,03,04,05,06,07,08,09,10,11,12,1.0,1.0,1.0*30
$GPRMC,120029.100,A,4149.589,N,00048.758,W,038.9,073.7,150725,000.0,W*6E
$GPGGA,120029.200,4149.590,N,00048.757,W,1,12,1.0,0.0,M,0.0,M,,*7B
$GPGSA,A,3,01,02,03,04,05,06,07,08,09,10,11,12,1.0,1.0,1.0*30
$GPRMC,120029.200,A,4149.590,N,00048.757,W,038.9,073.7,150725,000.0,W*6A
$GPGGA,120029.300,4149.590,N,00048.755,W,1,12,1.0,0.0,M,0.0,M,,*78
$GPGSA,A,3,01,02,03,04,05,06,07,08,09,10,11,12,1.0,1.0,1.0*30
$GPRMC,120029.300,A,4149.590,N,00048.755,W,038.9,073.7,150725,000.0,W*69
$GPGGA,120029.400,4149.590,N,00048.754,W,1,12,1.0,0.0,M,0.0,M,,*7E
$GPGSA,A,3,01,02,03,04,05,06,07,08,09,10,11,12,1.0,1.0,1.0*30
$GPRMC,120029.400,A,4149.590,N,00048.754,W,038.9,073.7,150725,000.0,W*6F
$GPGGA,120029.500,4149.591,N,00048.752,W,1,12,1.0,0.0,M,0.0,M,,*78
$GPGSA,A,3,01,02,03,04,05,06,07,08,09,10,11,12,1.0,1.0,1.0*30
$GPRMC,120029.500,A,4149.591,N,00048.752,W,038.9,073.7,150725,000.0,W*69
$GPGGA,120029.600,4149.591,N,00048.751,W,1,12,1.0,0.0,M,0.0,M,,*78
$GPGSA,A,3,01,02,03,04,05,06,07,08,09,10,11,12,1.0,1.0,1.0*30
$GPRMC,120029.600,A,4149.591,N,00048.751,W,038.9,073.7,150725,000.0,W*69
